#------------------------------------------------------------
~VERSION INFORMATION
VERS.               2.0  :CWLS LOG ASCII STANDARD - VERSION 2.0
WRAP.               YES  :MULTIPLE LINES PER DEPTH STEP
#------------------------------------------------------------
~WELL INFORMATION
STRT.M        -0.700000  :FIRST INDEX VALUE
STOP.M          390.050  :LAST INDEX VALUE
STEP.M        0.0100000  :STEP
NULL.            -99999  :NULL VALUE
COMP.                    :COMPANY
WELL.                    :WELL
FLD.                     :FIELD
LOC.                     :LOCATION
SRVC.                    :
CTRY.                    :COUNTRY
STAT.                    :STATE
CNTY.                    :
DATE.                    :DATE
API.                     :
#------------------------------------------------------------
~CURVE INFORMATION
DEPT.M                   :DEPTH
BOREHOLE_DIAMETER.INCH   :Borehole Diameter
NATURAL_GAMMA_RAY.API    :Natural Gamma Ray
LONG_NORMAL_RESISTIVITY_64".OHMM   :Long Normal Resistivity 64"
SHORT_NORMAL_RESISTIVITY_16".OHMM   :Short Normal Resistivity 16"
SPR.OHM                  :SPR
SP.MV                    :SP
CONDUCTIVITY.USIE        :Conductivity
TEMPERATURE.°C           :Temperature
#------------------------------------------------------------
~PARAMETER INFORMATION
Abbreviations_. _m.b.g.l. - meters below ground level_m.a.s.l. - meters above sea level_API - American Petroleum Institute Counts_In / " - Inches_DEGC - Degree Celsius_ppm - parts per million (total dissolved solids)_g/cc - grams per cubic centimeter_% - percent porosity_Date Format_ DD/MM/YYYY  :Abbreviations:
CLIENT_.  Suhab Alsahel  :CLIENT:
DateTime#1.  30/03/2024  :DateTime#1
DEPTH_LOGGER_. 390 m.b.g.l.  :DEPTH LOGGER:
DEPTH-TO-WATER_.  filled  :DEPTH-TO-WATER:
DRILLING_DEPTH_. 390 m.b.g.l  :DRILLING DEPTH:
ELEVATION_.    m.a.s.l.  :ELEVATION:
FLUID_IN_HOLE_.     Mud  :FLUID IN HOLE:
Geophysical_Well_Logging_of. K-GEP-1  :Geophysical Well Logging of
LATITUDE_.  N 22.300800  :LATITUDE:
LOGGING_ENGINEERS_.  Eng. Qais  :LOGGING ENGINEERS:
LONGITUDE_. E 39.114322  :LONGITUDE:
TYPE_OF_LOG_. Composite  :TYPE OF LOG:
WITNESSED_BY_.           :WITNESSED BY:
#------------------------------------------------------------
~OTHER
#------------------------------------------------------------
~A
# ...
   108.820
     10.4420     7.11960    -99999.0    -99999.0    -99999.0
    -99999.0     61277.4     37.0470
   108.830
     10.4420     7.11960    -99999.0    -99999.0    -99999.0
    -99999.0     61277.4     37.0470
   108.840
     10.4420     13.4351    -99999.0    -99999.0    -99999.0
    -99999.0     61277.4     37.0460
   108.850
     10.4420     13.4351    -99999.0    -99999.0    -99999.0
    -99999.0     61277.4     37.0460
   108.860
     10.4420     13.4351    -99999.0    -99999.0    -99999.0
    -99999.0     61277.4     37.0460
   108.870
     10.4420     21.0738    -99999.0    -99999.0    -99999.0
    -99999.0     61277.4     37.0470
   108.880
     10.4420     21.0796    -99999.0    -99999.0    -99999.0
    -99999.0     61277.4     37.0470
   108.890
     10.4420     21.0796    -99999.0    -99999.0    -99999.0
    -99999.0     61277.4     37.0470
   108.900
     10.4420     14.1049    -99999.0    -99999.0    -99999.0
    -99999.0     61277.4     37.0480
   108.910
     10.4420     14.0996    -99999.0    -99999.0    -99999.0
    -99999.0     61277.4     37.0480
   108.920
     10.4420     14.0996    -99999.0    -99999.0    -99999.0
    -99999.0     61277.4     37.0480
   108.930
     10.4420     14.0996    -99999.0    -99999.0    -99999.0
    -99999.0     61277.4     37.0480
   108.940
     10.4420     21.0796    -99999.0    -99999.0    -99999.0
    -99999.0     61277.4     37.0480
   108.950
     10.4420     21.0796    -99999.0    -99999.0    -99999.0
    -99999.0     61277.4     37.0480
   108.960
     10.4420     21.0796    -99999.0    -99999.0    -99999.0
    -99999.0     61277.4     37.0500
   108.970
     10.4420     14.0996    -99999.0    -99999.0    -99999.0
    -99999.0     61277.4     37.0500
   108.980
     10.4420     14.0996    -99999.0    -99999.0    -99999.0
    -99999.0     61277.4     37.0500
   108.990
     10.4420     14.0996    -99999.0    -99999.0    -99999.0
    -99999.0     61277.4     37.0470
   109.000
     10.4420     14.0996    -99999.0    -99999.0    -99999.0
    -99999.0     61277.4     37.0470
   109.010
     10.4420     14.0996    -99999.0    -99999.0    -99999.0
    -99999.0     61277.4     37.0470
   109.020
     10.4420     14.0996    -99999.0    -99999.0    -99999.0
    -99999.0     61277.4     37.0500
   109.030
     10.4420     14.0996    -99999.0    -99999.0    -99999.0
    -99999.0     61277.4     37.0500
   109.040
     10.4420    0.139600    -99999.0    -99999.0    -99999.0
    -99999.0     61277.4     37.0500
   109.050
     10.4420    0.139600    -99999.0    -99999.0    -99999.0
    -99999.0     61277.4     37.0520
   109.060
     10.4420    0.139600    -99999.0    -99999.0    -99999.0
    -99999.0     61277.4     37.0520
   109.070
     10.4420     14.0996    -99999.0    -99999.0    -99999.0
    -99999.0     61277.4     37.0520
   109.080
     10.4420     14.0996    -99999.0    -99999.0    -99999.0
    -99999.0     61277.4     37.0520
   109.090
     10.4420     14.0996    -99999.0    -99999.0    -99999.0
    -99999.0     61277.4     37.0530
   109.100
     10.4420     28.0596    -99999.0    -99999.0    -99999.0
    -99999.0     61277.4     37.0530
   109.110
     10.4420     28.0596    -99999.0    -99999.0    -99999.0
    -99999.0     61277.4     37.0530
   109.120
     10.4420     28.0596    -99999.0    -99999.0    -99999.0
    -99999.0     61277.4     37.0510
   109.130
     10.4420     28.0596    -99999.0    -99999.0    -99999.0
    -99999.0     61277.4     37.0510
   109.140
     10.4420     7.15154    -99999.0    -99999.0    -99999.0
    -99999.0     61277.4     37.0510
   109.150
     10.4420     7.11960    -99999.0    -99999.0    -99999.0
    -99999.0     61277.4     37.0540
   109.160
     10.4420     7.11960    -99999.0    -99999.0    -99999.0
    -99999.0     61277.4     37.0540
   109.170
     10.4420    0.150257    -99999.0    -99999.0    -99999.0
    -99999.0     61277.4     37.0540
   109.180
     10.4420    0.139600    -99999.0    -99999.0    -99999.0
    -99999.0     61277.4     37.0550
   109.190
     10.4420    0.139600    -99999.0    -99999.0    -99999.0
    -99999.0     61277.4     37.0550
   109.200
     10.4420    0.139600    -99999.0    -99999.0    -99999.0
    -99999.0     61277.4     37.0550
   109.210
     10.4420    0.139600    -99999.0    -99999.0    -99999.0
    -99999.0     61277.4     37.0540
   109.220
     10.4420    0.139600    -99999.0    -99999.0    -99999.0
    -99999.0     61277.4     37.0540
   109.230
     10.4420     7.10363    -99999.0    -99999.0    -99999.0
    -99999.0     61277.4     37.0540
   109.240
     10.4420     7.11960    -99999.0    -99999.0    -99999.0
    -99999.0     61277.4     37.0550
   109.250
     10.4420     7.11960    -99999.0    -99999.0    -99999.0
    -99999.0     61277.4     37.0550
   109.260
     10.4420     7.11960    -99999.0    -99999.0    -99999.0
    -99999.0     61277.4     37.0550
   109.270
     10.4420     7.11960    -99999.0    -99999.0    -99999.0
    -99999.0     61277.4     37.0550
   109.280
     10.4420     7.11960    -99999.0    -99999.0    -99999.0
    -99999.0     61277.4     37.0550
   109.290
     10.4420     7.11960    -99999.0    -99999.0    -99999.0
    -99999.0     61277.4     37.0550
   109.300
     10.4420     7.11960    -99999.0    -99999.0    -99999.0
    -99999.0     61277.4     37.0550
   109.310
     10.4420     7.11960    -99999.0    -99999.0    -99999.0
    -99999.0     61277.4     37.0560
   109.320
     10.4420     7.11960    -99999.0    -99999.0    -99999.0
    -99999.0     61277.4     37.0560
   109.330
     10.4420     7.11960    -99999.0    -99999.0    -99999.0
    -99999.0     61277.4     37.0560
   109.340
     10.4420     7.11960    -99999.0    -99999.0    -99999.0
    -99999.0     61277.4     37.0550
   109.350
     10.4420     7.11960    -99999.0    -99999.0    -99999.0
    -99999.0     61277.4     37.0550
   109.360
     10.4420     7.11960    -99999.0    -99999.0    -99999.0
    -99999.0     61277.4     37.0550
   109.370
     10.4420     7.11960    -99999.0    -99999.0    -99999.0
    -99999.0     61277.4     37.0560
   109.380
     10.4420     7.11960    -99999.0    -99999.0    -99999.0
    -99999.0     61277.4     37.0560
   109.390
     10.4420     7.11960    -99999.0    -99999.0    -99999.0
    -99999.0     61277.4     37.0560
   109.400
     10.4420     21.0690    -99999.0    -99999.0    -99999.0
    -99999.0     61277.4     37.0580
   109.410
     10.4420     21.0796    -99999.0    -99999.0    -99999.0
    -99999.0     61277.4     37.0580
   109.420
     10.4420     21.0796    -99999.0    -99999.0    -99999.0
    -99999.0     61277.4     37.0580
   109.430
     10.4420     35.0290    -99999.0    -99999.0    -99999.0
    -99999.0     61277.4     37.0580
   109.440
     10.4420     35.0396    -99999.0    -99999.0    -99999.0
    -99999.0     61277.4     37.0560
   109.450
     10.4420     35.0396    -99999.0    -99999.0    -99999.0
    -99999.0     61277.4     37.0560
   109.460
     10.4420     14.1156    -99999.0    -99999.0    -99999.0
    -99999.0     61277.4     37.0560
   109.470
     10.4420     14.0996    -99999.0    -99999.0    -99999.0
    -99999.0     61277.4     37.0610
   109.480
     10.4420     14.0996    -99999.0    -99999.0    -99999.0
    -99999.0     61277.4     37.0610
   109.490
     10.4420     14.0996    -99999.0    -99999.0    -99999.0
    -99999.0     61277.4     37.0610
   109.500
     10.4420     7.11960    -99999.0    -99999.0    -99999.0
    -99999.0     61277.4     37.0610
   109.510
     10.4420     7.11960    -99999.0    -99999.0    -99999.0
    -99999.0     61277.4     37.0610
   109.520
     10.4420     7.11960    -99999.0    -99999.0    -99999.0
    -99999.0     61277.4     37.0610
   109.530
     10.4420     21.0796    -99999.0    -99999.0    -99999.0
    -99999.0     61277.4     37.0610
   109.540
     10.4420     21.0796    -99999.0    -99999.0    -99999.0
    -99999.0     61277.4     37.0600
   109.550
     10.4420     21.0796    -99999.0    -99999.0    -99999.0
    -99999.0     61277.4     37.0600
