#------------------------------------------------------------
~VERSION INFORMATION
VERS.               2.0  :CWLS LOG ASCII STANDARD - VERSION 2.0
WRAP.               YES  :MULTIPLE LINES PER DEPTH STEP
#------------------------------------------------------------
~WELL INFORMATION
STRT.M        -0.700000  :FIRST INDEX VALUE
STOP.M          390.050  :LAST INDEX VALUE
STEP.M        0.0100000  :STEP
NULL.            -99999  :NULL VALUE
COMP.                    :COMPANY
WELL.                    :WELL
FLD.                     :FIELD
LOC.                     :LOCATION
SRVC.                    :
CTRY.                    :COUNTRY
STAT.                    :STATE
CNTY.                    :
DATE.                    :DATE
API.                     :
#------------------------------------------------------------
~CURVE INFORMATION
DEPT.M                   :DEPTH
BOREHOLE_DIAMETER.INCH   :Borehole Diameter
NATURAL_GAMMA_RAY.API    :Natural Gamma Ray
LONG_NORMAL_RESISTIVITY_64".OHMM   :Long Normal Resistivity 64"
SHORT_NORMAL_RESISTIVITY_16".OHMM   :Short Normal Resistivity 16"
SPR.OHM                  :SPR
SP.MV                    :SP
CONDUCTIVITY.USIE        :Conductivity
TEMPERATURE.°C           :Temperature
#------------------------------------------------------------
~PARAMETER INFORMATION
Abbreviations_. _m.b.g.l. - meters below ground level_m.a.s.l. - meters above sea level_API - American Petroleum Institute Counts_In / " - Inches_DEGC - Degree Celsius_ppm - parts per million (total dissolved solids)_g/cc - grams per cubic centimeter_% - percent porosity_Date Format_ DD/MM/YYYY  :Abbreviations:
CLIENT_.  Suhab Alsahel  :CLIENT:
DateTime#1.  30/03/2024  :DateTime#1
DEPTH_LOGGER_. 390 m.b.g.l.  :DEPTH LOGGER:
DEPTH-TO-WATER_.  filled  :DEPTH-TO-WATER:
DRILLING_DEPTH_. 390 m.b.g.l  :DRILLING DEPTH:
ELEVATION_.    m.a.s.l.  :ELEVATION:
FLUID_IN_HOLE_.     Mud  :FLUID IN HOLE:
Geophysical_Well_Logging_of. K-GEP-1  :Geophysical Well Logging of
LATITUDE_.  N 22.300800  :LATITUDE:
LOGGING_ENGINEERS_.  Eng. Qais  :LOGGING ENGINEERS:
LONGITUDE_. E 39.114322  :LONGITUDE:
TYPE_OF_LOG_. Composite  :TYPE OF LOG:
WITNESSED_BY_.           :WITNESSED BY:
#------------------------------------------------------------
~OTHER
#------------------------------------------------------------
~A
# ...
   335.260
     11.3030     7.11960    0.982000    0.178000   -0.467000
    -250.496     61277.4     39.7990
   335.270
     11.3030     28.0596    0.982000    0.178000   -0.486000
    -250.447     61277.4     39.7990
   335.280
     11.3920     28.0596     1.03000    0.178000   -0.486000
    -250.447     61277.4     39.7990
   335.290
     11.3920     28.0596     1.03000   0.0760000   -0.486000
    -250.447     61277.4     39.7990
   335.300
     11.9260     14.0996     1.03000   0.0760000   -0.486000
    -250.447     61277.4     39.7990
   335.310
     11.9260     14.0996     1.03000   0.0760000   -0.486000
    -250.447     61277.4     39.8000
   335.320
     12.3108     21.0583     1.03000   0.0760000   -0.411000
    -250.298     61277.4     39.8000
   335.330
     12.3120     21.0796     1.17400   0.0760000   -0.411000
    -250.298     61277.4     39.8000
   335.340
     12.3120     7.11960     1.17400    0.201000   -0.411000
    -250.298     61277.4     39.8020
   335.350
     12.6061     7.11960    0.752000    0.201000   -0.411000
    -250.298     61277.4     39.8020
   335.360
     12.6070     7.11960    0.752000    0.201000   -0.411000
    -250.207     61277.4     39.8030
   335.370
     12.4950     7.11960    0.752000    0.201000   -0.467000
    -250.207     61277.4     39.8030
   335.380
     12.4950     7.11960    0.752000    0.201000   -0.467000
    -250.207     61277.4     39.8030
   335.390
     11.5858     27.9958    0.752000    0.167000   -0.467000
    -250.207     61277.4     39.8030
   335.400
     11.5830     28.0596     1.85600    0.167000   -0.467000
    -250.207     61277.4     39.8030
   335.410
     10.9938     7.18344     1.85600    0.167000   -0.467000
    -250.222     61277.4     39.8050
   335.420
     10.9920     7.11960     1.85600    0.167000   -0.486000
    -250.222     61277.4     39.8050
   335.430
     10.9920     42.0196     1.85600    0.167000   -0.486000
    -250.222     61277.4     39.8030
   335.440
     10.8880     42.0196     1.85600    0.258000   -0.486000
    -250.222     61277.4     39.8030
   335.450
     10.8880     14.1847    0.934000    0.258000   -0.486000
    -250.222     61277.4     39.8030
   335.460
     10.8460     14.0996    0.934000    0.258000   -0.486000
    -250.291     61277.4     39.8020
   335.470
     10.8460     14.0996    0.934000    0.258000   -0.356000
    -250.291     61277.4     39.8020
   335.480
     10.7952     28.0170    0.934000    0.258000   -0.356000
    -250.291     61277.4     39.8060
   335.490
     10.7950     28.0596    0.934000    0.144000   -0.356000
    -250.291     61277.4     39.8060
   335.500
     10.7950    0.139600     1.16500    0.144000   -0.356000
    -250.291     61277.4     39.8060
   335.510
     10.7950    0.139600     1.16500    0.144000   -0.356000
    -250.345     61277.4     39.8030
   335.520
     10.7950     14.0996     1.16500    0.144000   -0.514000
    -250.345     61277.4     39.8030
   335.530
     10.7960     14.0996     1.16500    0.144000   -0.514000
    -250.345     61277.4     39.8030
   335.540
     10.7960     21.0583     1.16500    0.156000   -0.514000
    -250.345     61277.4     39.8030
   335.550
     10.7300     21.0796     1.16500    0.156000   -0.514000
    -250.345     61277.4     39.8050
   335.560
     10.7300     21.0796     1.16500    0.156000   -0.486000
    -250.385     61277.4     39.8050
   335.570
     10.7091     14.1209     1.16500    0.156000   -0.486000
    -250.385     61277.4     39.8050
   335.580
     10.7090     14.0996     1.16500    0.156000   -0.486000
    -250.385     61277.4     39.8060
   335.590
     10.6880     7.11960     1.16500    0.190000   -0.486000
    -250.385     61277.4     39.8060
   335.600
     10.6880     7.11960     1.14500    0.190000   -0.486000
    -250.385     61277.4     39.8060
   335.610
     10.6770     21.0796     1.14500    0.190000   -0.486000
    -250.335     61277.4     39.8060
   335.620
     10.6770     21.0796     1.14500    0.190000   -0.486000
    -250.335     61277.4     39.8060
   335.630
     10.6770     14.0996     1.14500    0.133000   -0.486000
    -250.430     61277.4     39.8060
   335.640
     10.6770     14.0996     1.14500    0.133000   -0.486000
    -250.430     61277.4     39.8060
   335.650
     10.6770     14.0996     1.12600    0.133000   -0.486000
    -250.430     61277.4     39.8050
   335.660
     10.6770     14.0996     1.12600    0.133000   -0.486000
    -250.430     61277.4     39.8050
   335.670
     10.6770     14.0996     1.12600    0.133000   -0.504000
    -250.430     61277.4     39.8060
   335.680
     10.6760    0.139600     1.12600    0.178000   -0.504000
    -250.405     61277.4     39.8060
   335.690
     10.6760    0.139600     1.28900    0.178000   -0.328000
    -250.405     61277.4     39.8060
   335.700
     10.6770     13.3946     1.28900    0.178000   -0.328000
    -250.405     61277.4     39.8060
   335.710
     10.6770     13.4351     1.28900    0.178000   -0.328000
    -250.405     61277.4     39.8060
   335.720
     10.6760     14.0996     1.28900    0.178000   -0.328000
    -250.405     61277.4     39.8080
   335.730
     10.6760     14.0996     1.28900    0.281000   -0.328000
    -250.444     61277.4     39.8080
   335.740
     10.6760     7.11960     1.22200    0.281000   -0.458000
    -250.444     61277.4     39.8080
   335.750
     10.6760     7.11960     1.22200    0.281000   -0.458000
    -250.444     61277.4     39.8080
   335.760
     10.6760     7.11960     1.22200    0.281000   -0.458000
    -250.444     61277.4     39.8080
   335.770
     10.6760     28.0596     1.22200    0.281000   -0.458000
    -250.444     61277.4     39.8080
   335.780
     10.6760     28.0596     1.22200    0.269000   -0.458000
    -250.491     61277.4     39.8080
   335.790
     10.6760     14.1422     1.28000    0.269000   -0.439000
    -250.491     61277.4     39.8070
   335.800
     10.6760     14.0996     1.28000    0.269000   -0.439000
    -250.491     61277.4     39.8070
   335.810
     10.6760     21.0796     1.28000    0.269000   -0.439000
    -250.491     61277.4     39.8060
   335.820
     10.6760     21.0796     1.28000    0.269000   -0.439000
    -250.491     61277.4     39.8060
   335.830
     10.6760     21.0796     1.28000    0.474000   -0.439000
    -250.530     61277.4     39.8060
   335.840
     10.6760     35.0396     1.28000    0.474000   -0.449000
    -250.530     61277.4     39.8070
   335.850
     10.6760     35.0396     1.28000    0.474000   -0.449000
    -250.530     61277.4     39.8070
   335.860
     10.6760     14.0996     1.28000    0.474000   -0.449000
    -250.530     61277.4     39.8070
   335.870
     10.6760     14.0996     1.28000    0.474000   -0.449000
    -250.590     61277.4     39.8070
   335.880
     10.6760     7.11960     1.28000    0.371000   -0.356000
    -250.590     61277.4     39.8100
   335.890
     10.6760     7.11960     1.31800    0.371000   -0.356000
    -250.590     61277.4     39.8100
   335.900
     10.6760     14.0996     1.31800    0.371000   -0.356000
    -250.590     61277.4     39.8100
   335.910
     10.6760     14.0996     1.31800    0.371000   -0.356000
    -250.590     61277.4     39.8100
   335.920
     10.6760     14.0996     1.31800    0.371000   -0.356000
    -250.592     61277.4     39.8100
   335.930
     10.6760     21.0796     1.31800    0.269000   -0.523000
    -250.592     61277.4     39.8100
   335.940
     10.6820     21.0796     1.04900    0.269000   -0.523000
    -250.592     61277.4     39.8100
   335.950
     10.6820    0.203441     1.04900    0.269000   -0.523000
    -250.592     61277.4     39.8110
   335.960
     10.6820    0.139600     1.04900    0.269000   -0.523000
    -250.592     61277.4     39.8110
   335.970
     10.6830     7.11960     1.04900    0.269000   -0.523000
    -250.548     61277.4     39.8110
   335.980
     10.6830     7.11960     1.04900    0.394000   -0.486000
    -250.548     61277.4     39.8110
   335.990
     10.6830     14.0996     1.19300    0.394000   -0.486000
    -250.548     61277.4     39.8110
