#------------------------------------------------------------
~VERSION INFORMATION
VERS.               2.0  :CWLS LOG ASCII STANDARD - VERSION 2.0
WRAP.               YES  :MULTIPLE LINES PER DEPTH STEP
#------------------------------------------------------------
~WELL INFORMATION
STRT.M        -0.700000  :FIRST INDEX VALUE
STOP.M          390.050  :LAST INDEX VALUE
STEP.M        0.0100000  :STEP
NULL.            -99999  :NULL VALUE
COMP.                    :COMPANY
WELL.                    :WELL
FLD.                     :FIELD
LOC.                     :LOCATION
SRVC.                    :
CTRY.                    :COUNTRY
STAT.                    :STATE
CNTY.                    :
DATE.                    :DATE
API.                     :
#------------------------------------------------------------
~CURVE INFORMATION
DEPT.M                   :DEPTH
BOREHOLE_DIAMETER.INCH   :Borehole Diameter
NATURAL_GAMMA_RAY.API    :Natural Gamma Ray
LONG_NORMAL_RESISTIVITY_64".OHMM   :Long Normal Resistivity 64"
SHORT_NORMAL_RESISTIVITY_16".OHMM   :Short Normal Resistivity 16"
SPR.OHM                  :SPR
SP.MV                    :SP
CONDUCTIVITY.USIE        :Conductivity
TEMPERATURE.°C           :Temperature
#------------------------------------------------------------
~PARAMETER INFORMATION
Abbreviations_. _m.b.g.l. - meters below ground level_m.a.s.l. - meters above sea level_API - American Petroleum Institute Counts_In / " - Inches_DEGC - Degree Celsius_ppm - parts per million (total dissolved solids)_g/cc - grams per cubic centimeter_% - percent porosity_Date Format_ DD/MM/YYYY  :Abbreviations:
CLIENT_.  Suhab Alsahel  :CLIENT:
DateTime#1.  30/03/2024  :DateTime#1
DEPTH_LOGGER_. 390 m.b.g.l.  :DEPTH LOGGER:
DEPTH-TO-WATER_.  filled  :DEPTH-TO-WATER:
DRILLING_DEPTH_. 390 m.b.g.l  :DRILLING DEPTH:
ELEVATION_.    m.a.s.l.  :ELEVATION:
FLUID_IN_HOLE_.     Mud  :FLUID IN HOLE:
Geophysical_Well_Logging_of. K-GEP-1  :Geophysical Well Logging of
LATITUDE_.  N 22.300800  :LATITUDE:
LOGGING_ENGINEERS_.  Eng. Qais  :LOGGING ENGINEERS:
LONGITUDE_. E 39.114322  :LONGITUDE:
TYPE_OF_LOG_. Composite  :TYPE OF LOG:
WITNESSED_BY_.           :WITNESSED BY:
#------------------------------------------------------------
~OTHER
#------------------------------------------------------------
~A
# ...
   360.420
     10.7110     14.1634    0.915000    0.383000   -0.402000
    -261.485     61277.4     40.1610
   360.430
     10.6790     14.0996     1.22200    0.383000   -0.402000
    -261.485     61277.4     40.1630
   360.440
     10.6790     7.11960     1.16900    0.383000   -0.402000
    -261.421     61277.4     40.1630
   360.450
     10.9003     7.11960     1.22200    0.224000   -0.402000
    -261.421     61277.4     40.1610
   360.460
     10.9010     14.0996     1.04900    0.224000   -0.402000
    -261.421     61277.4     40.1610
   360.470
     10.9010     14.0996     1.04900    0.224000   -0.504000
    -260.482     61277.4     40.1630
   360.480
     10.9748     6.80965     1.01100    0.224000   -0.504000
    -260.685     61277.4     40.1630
   360.490
     10.9750     6.78735     1.01100    0.224000   -0.504000
    -260.685     61277.4     40.1650
   360.500
     10.9440     14.0996     1.00100    0.235000   -0.504000
    -260.461     61277.4     40.1650
   360.510
     10.9440     14.0996     1.07800    0.235000   -0.458000
    -260.879     61277.4     40.1650
   360.520
     10.9930     21.0796     1.07800    0.235000   -0.458000
    -260.453     61277.4     40.1640
   360.530
     10.9930     21.0796     1.04300    0.235000   -0.374000
    -260.453     61277.4     40.1640
   360.540
     10.8564     21.0796     1.04300    0.235000   -0.374000
    -261.299     61277.4     40.1640
   360.550
     10.8560     21.0796     1.14500    0.235000   -0.374000
    -261.299     61277.4     40.1640
   360.560
     10.8780     21.0796     1.03000    0.235000   -0.374000
    -260.595     61277.4     40.1670
   360.570
     10.8780     41.9558    0.992000    0.235000   -0.374000
    -260.595     61277.4     40.1670
   360.580
     10.8780     42.0196    0.992000    0.235000   -0.393000
    -261.446     61277.4     40.1670
   360.590
     10.6940     14.0996    0.958000    0.201000   -0.393000
    -260.217     61277.4     40.1670
   360.600
     10.6940     14.0996    0.958000    0.201000   -0.393000
    -260.217     61277.4     40.1670
   360.610
     10.7580     35.0396    0.989000    0.201000   -0.393000
    -261.357     61277.4     40.1650
   360.620
     10.7580     35.0396    0.989000    0.251000   -0.411000
    -259.071     61277.4     40.1650
   360.630
     11.0182     7.20472    0.877000    0.197000   -0.411000
    -261.350     61277.4     40.1630
   360.640
     11.0190     7.11960     1.10700    0.197000   -0.411000
    -261.118     61277.4     40.1630
   360.650
     10.9950     7.11960     1.06400    0.241000   -0.411000
    -260.158     61277.4     40.1700
   360.660
     10.9950     27.9958     1.10700    0.292000   -0.430000
    -260.158     61277.4     40.1700
   360.670
     10.7976     28.0596     1.10700    0.258000   -0.430000
    -261.244     61277.4     40.1700
   360.680
     10.7970     7.11960     1.07800    0.258000   -0.430000
    -261.244     61277.4     40.1690
   360.690
     10.6530     7.11960     1.01100    0.286000   -0.430000
    -260.476     61277.4     40.1690
   360.700
     10.6530     14.0783    0.723000    0.286000   -0.402000
    -260.476     61277.4     40.1660
   360.710
     10.6530     14.0996    0.723000    0.281000   -0.402000
    -260.476     61277.4     40.1660
   360.720
     10.9910     14.0996    0.848000    0.281000   -0.402000
    -261.241     61277.4     40.1670
   360.730
     10.9910     14.0996     1.04900    0.281000   -0.402000
    -259.077     61277.4     40.1670
   360.740
     11.1600     28.0596    0.910000    0.281000   -0.402000
    -261.360     61277.4     40.1670
   360.750
     11.1600     28.0596    0.910000    0.281000   -0.486000
    -261.360     61277.4     40.1700
   360.760
     11.4013     28.0596     1.09300    0.252000   -0.486000
    -261.595     61277.4     40.1700
   360.770
     11.4020     14.0996    0.685000    0.360000   -0.486000
    -260.101     61277.4     40.1700
   360.780
     11.0550     14.0996    0.915000    0.178000   -0.486000
    -261.490     61277.4     40.1700
   360.790
     11.0550     7.14088    0.915000    0.326000   -0.486000
    -261.490     61277.4     40.1700
   360.800
     11.1010     7.11960    0.891000    0.320000   -0.486000
    -261.249     61277.4     40.1700
   360.810
     11.1010     28.0596    0.915000    0.320000   -0.486000
    -258.999     61277.4     40.1670
   360.820
     11.2266     28.0596     1.10700    0.212000   -0.486000
    -261.346     61277.4     40.1670
   360.830
     11.2270     7.11960    0.910000    0.212000   -0.486000
    -261.346     61277.4     40.1670
   360.840
     11.2270     7.11960    0.910000   0.0650000   -0.551000
    -261.685     61277.4     40.1710
   360.850
     10.8980     21.0370    0.973000   0.0650000   -0.551000
    -259.970     61277.4     40.1710
   360.860
     10.8970     21.0796    0.973000   0.0650000   -0.551000
    -259.970     61277.4     40.1730
   360.870
     10.6200     7.11960    0.618000    0.133000   -0.444000
    -261.688     61277.4     40.1730
   360.880
     10.6200     7.11960    0.618000  -0.0490000   -0.421000
    -260.940     61277.4     40.1720
   360.890
     10.6978     7.11960    0.877000    0.218000   -0.421000
    -260.330     61277.4     40.1720
   360.900
     10.6980     14.0996    0.488000    0.218000   -0.449000
    -260.473     61277.4     40.1720
   360.910
     10.7668     14.0996    0.838000    0.269000   -0.449000
    -260.854     61277.4     40.1700
   360.920
     10.7670     14.0996    0.838000    0.207000   -0.458000
    -260.854     61277.4     40.1700
   360.930
     10.7690     14.0996     1.08800   0.0880000   -0.458000
    -260.100     61277.4     40.1710
   360.940
     10.7690     35.0396    0.829000   0.0880000   -0.462000
    -260.100     61277.4     40.1710
   360.950
     10.7909     35.0396     1.08800    0.201000   -0.462000
    -260.199     61277.4     40.1710
   360.960
     10.7910     14.0996    0.752000    0.303000   -0.473000
    -259.876     61277.4     40.1710
   360.970
     10.7480     14.0996    0.819000    0.156000   -0.473000
    -259.876     61277.4     40.1740
   360.980
     10.7480     7.14088    0.752000    0.156000   -0.458000
    -259.614     61277.4     40.1740
   360.990
     10.7480     7.11960    0.752000   0.0650000   -0.467000
    -259.614     61277.4     40.1740
   361.000
     10.7560     28.0596    0.742000    0.144000   -0.467000
    -260.124     61277.4     40.1740
   361.010
     10.7560     28.0596    0.766000    0.144000   -0.490000
    -259.855     61277.4     40.1740
   361.020
     10.5310     14.0996    0.742000   0.0650000   -0.411000
    -259.446     61277.4     40.1730
   361.030
     10.5310     14.0996    0.800000    0.246000   -0.523000
    -259.446     61277.4     40.1730
   361.040
     10.5330     34.9758    0.833000    0.212000   -0.356000
    -260.010     61277.4     40.1730
   361.050
     10.5330     35.0396    0.833000    0.246000   -0.411000
    -260.010     61277.4     40.1730
   361.060
     10.4670     35.0396    0.843000    0.156000   -0.411000
    -259.467     61277.4     40.1730
   361.070
     10.4670     35.0396    0.886000    0.156000   -0.383000
    -259.467     61277.4     40.1740
   361.080
     10.4670     35.0396    0.733000   0.0760000   -0.383000
    -259.843     61277.4     40.1740
   361.090
     10.4220     26.7306    0.589000   0.0760000   -0.489000
    -258.936     61277.4     40.1740
   361.100
     10.4220     26.7306    0.589000   0.0190000   -0.489000
    -259.281     61277.4     40.1740
   361.110
     10.4320     28.0596    0.637000    0.156000   -0.489000
    -258.936     61277.4     40.1730
   361.120
     10.4320     28.0596    0.637000    0.156000   -0.453000
    -258.936     61277.4     40.1730
   361.130
     10.4709     55.8945     1.00100   0.0380000   -0.569000
    -259.413     61277.4     40.1740
   361.140
     10.4710     55.9796    0.795000   0.0380000   -0.439000
    -258.553     61277.4     40.1740
   361.150
     10.6010     28.0596     1.00100    0.133000   -0.439000
    -259.413     61277.4     40.1740
