#------------------------------------------------------------
~VERSION INFORMATION
VERS.               2.0  :CWLS LOG ASCII STANDARD - VERSION 2.0
WRAP.               YES  :MULTIPLE LINES PER DEPTH STEP
#------------------------------------------------------------
~WELL INFORMATION
STRT.M        -0.700000  :FIRST INDEX VALUE
STOP.M          390.050  :LAST INDEX VALUE
STEP.M        0.0100000  :STEP
NULL.            -99999  :NULL VALUE
COMP.                    :COMPANY
WELL.                    :WELL
FLD.                     :FIELD
LOC.                     :LOCATION
SRVC.                    :
CTRY.                    :COUNTRY
STAT.                    :STATE
CNTY.                    :
DATE.                    :DATE
API.                     :
#------------------------------------------------------------
~CURVE INFORMATION
DEPT.M                   :DEPTH
BOREHOLE_DIAMETER.INCH   :Borehole Diameter
NATURAL_GAMMA_RAY.API    :Natural Gamma Ray
LONG_NORMAL_RESISTIVITY_64".OHMM   :Long Normal Resistivity 64"
SHORT_NORMAL_RESISTIVITY_16".OHMM   :Short Normal Resistivity 16"
SPR.OHM                  :SPR
SP.MV                    :SP
CONDUCTIVITY.USIE        :Conductivity
TEMPERATURE.°C           :Temperature
#------------------------------------------------------------
~PARAMETER INFORMATION
Abbreviations_. _m.b.g.l. - meters below ground level_m.a.s.l. - meters above sea level_API - American Petroleum Institute Counts_In / " - Inches_DEGC - Degree Celsius_ppm - parts per million (total dissolved solids)_g/cc - grams per cubic centimeter_% - percent porosity_Date Format_ DD/MM/YYYY  :Abbreviations:
CLIENT_.  Suhab Alsahel  :CLIENT:
DateTime#1.  30/03/2024  :DateTime#1
DEPTH_LOGGER_. 390 m.b.g.l.  :DEPTH LOGGER:
DEPTH-TO-WATER_.  filled  :DEPTH-TO-WATER:
DRILLING_DEPTH_. 390 m.b.g.l  :DRILLING DEPTH:
ELEVATION_.    m.a.s.l.  :ELEVATION:
FLUID_IN_HOLE_.     Mud  :FLUID IN HOLE:
Geophysical_Well_Logging_of. K-GEP-1  :Geophysical Well Logging of
LATITUDE_.  N 22.300800  :LATITUDE:
LOGGING_ENGINEERS_.  Eng. Qais  :LOGGING ENGINEERS:
LONGITUDE_. E 39.114322  :LONGITUDE:
TYPE_OF_LOG_. Composite  :TYPE OF LOG:
WITNESSED_BY_.           :WITNESSED BY:
#------------------------------------------------------------
~OTHER
#------------------------------------------------------------
~A
# ...
   284.940
     10.5140    0.139600     18.9500     5.51500    0.370000
    -272.682     61277.4     39.2940
   284.950
     10.5140    0.139600     18.9500     5.51500    0.370000
    -272.682     61277.4     39.2930
   284.960
     10.5140    0.139600     18.9500     5.58300    0.370000
    -267.418     61277.4     39.2930
   284.970
     10.5140     7.11960     18.9500     5.58300    0.370000
    -267.418     61277.4     39.2920
   284.980
     10.5140     7.11960     18.9500     5.58300    0.370000
    -267.418     61277.4     39.2920
   284.990
     10.5140     7.11960     18.9500     5.58300    0.398000
    -267.418     61277.4     39.2920
   285.000
     10.5140    0.139600     18.8250     5.58300    0.398000
    -267.418     61277.4     39.2950
   285.010
     10.5140    0.139600     18.8250     5.58300    0.398000
    -267.418     61277.4     39.2950
   285.020
     10.5140     6.78735     18.8250     5.58300    0.398000
    -267.418     61277.4     39.2950
   285.030
     10.5140     6.78735     18.8250     5.58300    0.398000
    -267.418     61277.4     39.2920
   285.040
     10.5140     7.11859     18.8250     5.42400    0.398000
    -267.513     61277.4     39.2920
   285.050
     10.5140     7.11960     18.8250     5.42400    0.398000
    -267.513     61277.4     39.2950
   285.060
     10.5140    0.139600     18.8250     5.42400    0.370000
    -267.513     61277.4     39.2950
   285.070
     10.5140    0.139600     18.8250     5.42400    0.370000
    -267.513     61277.4     39.2920
   285.080
     10.5140    0.139600     18.7680     5.42400    0.370000
    -267.513     61277.4     39.2920
   285.090
     10.5140    0.139600     18.7680     5.42400    0.370000
    -267.513     61277.4     39.2920
   285.100
     10.5140    0.139600     18.7680     5.42400    0.370000
    -267.513     61277.4     39.2960
   285.110
     10.5150    0.139600     18.7680     5.48100    0.370000
    -267.421     61277.4     39.2960
   285.120
     10.5150     14.0996     18.7680     5.48100    0.370000
    -267.421     61277.4     39.2920
   285.130
     10.5250     14.0996     18.7680     5.48100    0.370000
    -267.421     61277.4     39.2920
   285.140
     10.5250     14.0996     18.7680     5.48100    0.361000
    -267.421     61277.4     39.2920
   285.150
     10.5380    0.139600     18.4220     5.51500    0.361000
    -267.421     61277.4     39.2950
   285.160
     10.5380    0.139600     18.4220     5.51500    0.361000
    -267.421     61277.4     39.2950
   285.170
     10.5380     7.09832     18.4220     5.51500    0.361000
    -267.421     61277.4     39.2960
   285.180
     10.5380     7.11960     18.4220     5.51500    0.361000
    -267.421     61277.4     39.2960
   285.190
     10.5390    0.139600     18.4220     5.51500    0.361000
    -267.355     61277.4     39.2960
   285.200
     10.5390    0.139600     18.4220     5.51500    0.361000
    -267.355     61277.4     39.2950
   285.210
     10.5380    0.139600     18.4220     5.51500    0.351000
    -267.355     61277.4     39.2950
   285.220
     10.5380    0.139600     18.4220     5.51500    0.351000
    -267.355     61277.4     39.2930
   285.230
     10.5380    0.139600     17.7110     5.39000    0.351000
    -267.355     61277.4     39.2930
   285.240
     10.5390    0.139600     17.7110     5.39000    0.351000
    -267.355     61277.4     39.2930
   285.250
     10.5390     7.11960     17.7110     5.39000    0.351000
    -267.355     61277.4     39.2970
   285.260
     10.5400     7.11960     17.7110     5.39000    0.351000
    -267.386     61277.4     39.2970
   285.270
     10.5400     7.11960     17.7110     5.39000    0.351000
    -267.386     61277.4     39.2940
   285.280
     10.5410     7.11960     17.7110     5.39000    0.351000
    -267.386     61277.4     39.2940
   285.290
     10.5410     7.11960     17.7110     5.39000    0.333000
    -267.386     61277.4     39.2970
   285.300
     10.5490    0.139600     17.7110     5.26500    0.333000
    -267.386     61277.4     39.2970
   285.310
     10.5490    0.139600     17.3550     5.26500    0.333000
    -267.386     61277.4     39.2970
   285.320
     10.5720    0.139600     17.3550     5.26500    0.333000
    -267.386     61277.4     39.2960
   285.330
     10.5720    0.139600     17.3550     5.26500    0.333000
    -267.386     61277.4     39.2960
   285.340
     10.5510    0.139600     17.3550     5.26500    0.333000
    -267.653     61277.4     39.2960
   285.350
     10.5510    0.139600     17.3550     5.26500    0.333000
    -267.653     61277.4     39.2960
   285.360
     10.5510     14.0996     17.3550     5.26500    0.370000
    -267.653     61277.4     39.2960
   285.370
     10.5510     14.0996     17.3550     5.26500    0.370000
    -267.653     61277.4     39.2980
   285.380
     10.5510     14.0996     16.9710     5.32200    0.370000
    -267.653     61277.4     39.2980
   285.390
     10.5510     14.0996     16.9710     5.32200    0.370000
    -267.653     61277.4     39.2970
   285.400
     10.5510     21.0796     16.9710     5.32200    0.370000
    -267.653     61277.4     39.2970
   285.410
     10.5520     21.0796     16.9710     5.32200    0.370000
    -267.653     61277.4     39.2970
   285.420
     10.5520     21.0796     16.9710     5.32200    0.370000
    -267.858     61277.4     39.2980
   285.430
     10.5700     21.0796     16.9710     5.32200    0.370000
    -267.858     61277.4     39.2980
   285.440
     10.5700     21.0796     16.9710     5.32200    0.249000
    -267.858     61277.4     39.2980
   285.450
     10.6089     21.0796     16.9710     5.42400    0.249000
    -267.858     61277.4     39.2980
   285.460
     10.6090     21.0796     16.7400     5.42400    0.249000
    -267.858     61277.4     39.2980
   285.470
     10.6910     7.11960     16.7400     5.42400    0.249000
    -267.858     61277.4     39.2980
   285.480
     10.6910     7.11960     16.7400     5.42400    0.249000
    -267.858     61277.4     39.2980
   285.490
     10.7310     7.11960     16.7400     5.42400    0.249000
    -267.853     61277.4     39.3000
   285.500
     10.7310     7.11960     16.7400     5.42400    0.249000
    -267.853     61277.4     39.3000
   285.510
     10.7310     7.11960     16.7400     5.42400    0.435000
    -267.853     61277.4     39.2990
   285.520
     10.7310     7.11960     16.7400     5.42400    0.435000
    -267.853     61277.4     39.2990
   285.530
     10.7310     7.11960     16.5580     5.28800    0.435000
    -267.853     61277.4     39.2990
   285.540
     10.7380     7.11960     16.5580     5.28800    0.435000
    -267.853     61277.4     39.3010
   285.550
     10.7380     7.11960     16.5580     5.28800    0.435000
    -267.853     61277.4     39.3010
   285.560
     10.7390     14.0996     16.5580     5.28800    0.435000
    -267.853     61277.4     39.3010
   285.570
     10.7390     14.0996     16.5580     5.28800    0.435000
    -268.058     61277.4     39.2960
   285.580
     10.7230     7.11960     16.5580     5.28800    0.435000
    -268.058     61277.4     39.2960
   285.590
     10.7230     7.11960     16.5580     5.28800    0.379000
    -268.058     61277.4     39.2980
   285.600
     10.7469    0.160881     16.5580     5.25400    0.379000
    -268.058     61277.4     39.2980
   285.610
     10.7470    0.139600     16.0970     5.25400    0.379000
    -268.058     61277.4     39.2990
   285.620
     10.7440     26.7306     16.0970     5.25400    0.379000
    -268.058     61277.4     39.2990
   285.630
     10.7440     26.7306     16.0970     5.25400    0.379000
    -268.058     61277.4     39.2990
   285.640
     10.7440     41.9730     16.0970     5.25400    0.379000
    -268.180     61277.4     39.3020
   285.650
     10.6980     42.0196     16.0970     5.25400    0.379000
    -268.180     61277.4     39.3020
   285.660
     10.6980    0.267282     16.0970     5.25400    0.417000
    -268.180     61277.4     39.3000
   285.670
     10.6661    0.139600     16.0970     5.25400    0.417000
    -268.180     61277.4     39.3000
