#------------------------------------------------------------
~VERSION INFORMATION
VERS.               2.0  :CWLS LOG ASCII STANDARD - VERSION 2.0
WRAP.               YES  :MULTIPLE LINES PER DEPTH STEP
#------------------------------------------------------------
~WELL INFORMATION
STRT.M        -0.700000  :FIRST INDEX VALUE
STOP.M          390.050  :LAST INDEX VALUE
STEP.M        0.0100000  :STEP
NULL.            -99999  :NULL VALUE
COMP.                    :COMPANY
WELL.                    :WELL
FLD.                     :FIELD
LOC.                     :LOCATION
SRVC.                    :
CTRY.                    :COUNTRY
STAT.                    :STATE
CNTY.                    :
DATE.                    :DATE
API.                     :
#------------------------------------------------------------
~CURVE INFORMATION
DEPT.M                   :DEPTH
BOREHOLE_DIAMETER.INCH   :Borehole Diameter
NATURAL_GAMMA_RAY.API    :Natural Gamma Ray
LONG_NORMAL_RESISTIVITY_64".OHMM   :Long Normal Resistivity 64"
SHORT_NORMAL_RESISTIVITY_16".OHMM   :Short Normal Resistivity 16"
SPR.OHM                  :SPR
SP.MV                    :SP
CONDUCTIVITY.USIE        :Conductivity
TEMPERATURE.°C           :Temperature
#------------------------------------------------------------
~PARAMETER INFORMATION
Abbreviations_. _m.b.g.l. - meters below ground level_m.a.s.l. - meters above sea level_API - American Petroleum Institute Counts_In / " - Inches_DEGC - Degree Celsius_ppm - parts per million (total dissolved solids)_g/cc - grams per cubic centimeter_% - percent porosity_Date Format_ DD/MM/YYYY  :Abbreviations:
CLIENT_.  Suhab Alsahel  :CLIENT:
DateTime#1.  30/03/2024  :DateTime#1
DEPTH_LOGGER_. 390 m.b.g.l.  :DEPTH LOGGER:
DEPTH-TO-WATER_.  filled  :DEPTH-TO-WATER:
DRILLING_DEPTH_. 390 m.b.g.l  :DRILLING DEPTH:
ELEVATION_.    m.a.s.l.  :ELEVATION:
FLUID_IN_HOLE_.     Mud  :FLUID IN HOLE:
Geophysical_Well_Logging_of. K-GEP-1  :Geophysical Well Logging of
LATITUDE_.  N 22.300800  :LATITUDE:
LOGGING_ENGINEERS_.  Eng. Qais  :LOGGING ENGINEERS:
LONGITUDE_. E 39.114322  :LONGITUDE:
TYPE_OF_LOG_. Composite  :TYPE OF LOG:
WITNESSED_BY_.           :WITNESSED BY:
#------------------------------------------------------------
~OTHER
#------------------------------------------------------------
~A
# ...
   385.580
     11.2070     21.0796    -99999.0   0.0310000   -0.551000
    -248.736     61277.4     41.6680
   385.590
     11.2820     28.0596    -99999.0   0.0990000   -0.551000
    -248.736     61277.4     41.6700
   385.600
     11.3009     10.6628    -99999.0   0.0990000   -0.421000
    -248.725     61277.4     41.6700
   385.610
     11.3020     21.0796    -99999.0   0.0990000   -0.421000
    -248.725     61277.4     41.6700
   385.620
     11.3130    0.139600    -99999.0   0.0990000   -0.421000
    -248.725     61277.4     41.6670
   385.630
     11.3599     34.9332    -99999.0    0.167000   -0.421000
    -248.781     61277.4     41.6670
   385.640
     11.3919     17.6428    -99999.0    0.167000   -0.383000
    -248.781     61277.4     41.6700
   385.650
     11.4590     20.0829    -99999.0    0.167000   -0.383000
    -248.821     61277.4     41.6700
   385.660
     11.5318     14.1178    -99999.0  -0.0710000   -0.383000
    -248.821     61277.4     41.6710
   385.670
     11.6307     36.8073    -99999.0  -0.0710000   -0.504000
    -248.874     61277.4     41.6710
   385.680
     11.7230     27.3784    -99999.0  -0.0710000   -0.504000
    -248.874     61277.4     41.6670
   385.690
     11.7720     7.11960    -99999.0  -0.0260000   -0.504000
    -248.874     61277.4     41.6700
   385.700
     11.8149     14.0783    -99999.0  -0.0260000   -0.504000
    -248.900     61277.4     41.6700
   385.710
     11.8920    0.139600    -99999.0  -0.0260000   -0.458000
    -248.900     61277.4     41.6670
   385.720
     12.0240     21.0796    -99999.0  -0.0150000   -0.458000
    -248.906     61277.4     41.6670
   385.730
     12.1127     21.0796    -99999.0  -0.0150000   -0.458000
    -248.906     61277.4     41.6680
   385.740
     12.1150     21.0796    -99999.0  -0.0150000   -0.439000
    -249.045     61277.4     41.6680
   385.750
     12.1700     7.11960    -99999.0  -0.00300000   -0.439000
    -249.067     61277.4     41.6690
   385.760
     12.1680     21.0370    -99999.0  -0.00300000   -0.439000
    -248.943     61277.4     41.6670
   385.770
     12.2020     14.0996    -99999.0  -0.00300000   -0.439000
    -248.943     61277.4     41.6670
   385.780
     12.2120     28.0596    -99999.0   0.0310000   -0.532000
    -99999.0     61277.4     41.6680
   385.790
     12.1970     17.6215    -99999.0   0.0310000   -0.532000
    -99999.0     61277.4     41.6680
   385.800
     12.0660     7.11960    -99999.0   0.0880000   -0.532000
    -99999.0     61277.4     41.6680
   385.810
     12.0650     20.0829    -99999.0  -0.0940000   -0.467000
    -99999.0     61277.4     41.6630
   385.820
     11.9653     28.0353    -99999.0  -0.0940000   -0.467000
    -99999.0     61277.4     41.6630
   385.830
     11.8890     10.6096    -99999.0  -0.0940000   -0.467000
    -99999.0     61277.4     41.6630
   385.840
     11.9030     14.0996    -99999.0    0.122000   -0.383000
    -99999.0     61277.4     41.6630
   385.850
     11.9439     21.0583    -99999.0    0.122000   -0.383000
    -99999.0     61277.4     41.6630
   385.860
     11.9680     24.5696    -99999.0   0.0530000   -0.383000
    -99999.0     61277.4     41.6630
   385.870
     11.9810     7.11960    -99999.0   0.0530000   -0.383000
    -99999.0     61277.4     41.6660
   385.880
     11.9750     21.0370    -99999.0   0.0880000   -0.449000
    -99999.0     61277.4     41.6660
   385.890
     11.8942     28.0383    -99999.0   0.0420000   -0.449000
    -99999.0     61277.4     41.6660
   385.900
     11.7560     7.11960    -99999.0    0.000000   -0.449000
    -99999.0     61277.4     41.6640
   385.910
     11.7261     14.0783    -99999.0   0.0600000   -0.309000
    -99999.0     61277.4     41.6640
   385.920
     11.7200     21.0583    -99999.0   0.0600000   -0.309000
    -99999.0     61277.4     41.6650
   385.930
     11.7520     14.0996    -99999.0    -99999.0   -0.309000
    -99999.0     61277.4     41.6650
   385.940
     11.8170     7.11960    -99999.0    -99999.0   -0.495000
    -99999.0     61277.4     41.6640
   385.950
     11.8529     27.9958    -99999.0    -99999.0   -0.495000
    -99999.0     61277.4     41.6630
   385.960
     11.9040     28.0596    -99999.0    -99999.0   -0.495000
    -99999.0     61277.4     41.6630
   385.970
     11.9440     35.0396    -99999.0    -99999.0   -0.514000
    -99999.0     61277.4     41.6650
   385.980
     11.9799     14.1634    -99999.0    -99999.0   -0.514000
    -99999.0     61277.4     41.6650
   385.990
     12.1840     21.0796    -99999.0    -99999.0   -0.514000
    -99999.0     61277.4     41.6610
   386.000
     12.4030     3.62960    -99999.0    -99999.0   -0.607000
    -99999.0     61277.4     41.6610
   386.010
     12.5994     7.10896    -99999.0    -99999.0   -0.607000
    -99999.0     61277.4     41.6640
   386.020
     12.8790     42.0196    -99999.0    -99999.0   -0.607000
    -99999.0     61277.4     41.6620
   386.030
     13.2430     13.4351    -99999.0    -99999.0   -0.430000
    -99999.0     61277.4     41.6620
   386.040
     13.6288     38.4531    -99999.0    -99999.0   -0.430000
    -99999.0     61277.4     41.6640
   386.050
     13.9190     28.0596    -99999.0    -99999.0   -0.430000
    -99999.0     61277.4     41.6640
   386.060
     14.2490    0.139600    -99999.0    -99999.0   -0.430000
    -99999.0     61277.4     41.6600
   386.070
     14.6558     21.0158    -99999.0    -99999.0   -0.486000
    -99999.0     61277.4     41.6630
   386.080
     14.9610     7.11960    -99999.0    -99999.0   -0.486000
    -99999.0     61277.4     41.6630
   386.090
     15.2080     17.5896    -99999.0    -99999.0   -0.486000
    -99999.0     61277.4     41.6590
   386.100
     15.4622     34.9864    -99999.0    -99999.0   -0.551000
    -99999.0     61277.4     41.6590
   386.110
     15.6670     7.11960    -99999.0    -99999.0   -0.551000
    -99999.0     61277.4     41.6620
   386.120
     15.9180     28.0596    -99999.0    -99999.0   -0.458000
    -99999.0     61277.4     41.6620
   386.130
     16.0965     14.1422    -99999.0    -99999.0   -0.458000
    -99999.0     61277.4     41.6620
   386.140
     15.1968     17.5790    -99999.0    -99999.0   -0.535000
    -99999.0     61277.4     41.6590
   386.150
     13.2590     28.0596    -99999.0    -99999.0   -0.473000
    -99999.0     61277.4     41.6590
   386.160
     12.4495     21.1009    -99999.0    -99999.0   -0.476000
    -99999.0     61277.4     41.6610
   386.170
     11.9206     28.0383    -99999.0    -99999.0   -0.476000
    -99999.0     61277.4     41.6610
   386.180
     11.6380     24.5696    -99999.0    -99999.0    -99999.0
    -99999.0     61277.4     41.6570
   386.190
     11.6410     14.0996    -99999.0    -99999.0    -99999.0
    -99999.0     61277.4     41.6600
   386.200
     11.5473     34.9758    -99999.0    -99999.0    -99999.0
    -99999.0     61277.4     41.6600
   386.210
     11.5080     28.0596    -99999.0    -99999.0    -99999.0
    -99999.0     61277.4     41.6600
   386.220
     11.4670     14.0996    -99999.0    -99999.0    -99999.0
    -99999.0     61277.4     41.6600
   386.230
     11.5637     28.0170    -99999.0    -99999.0    -99999.0
    -99999.0     61277.4     41.6570
   386.240
     11.7070     14.0996    -99999.0    -99999.0    -99999.0
    -99999.0     61277.4     41.6570
   386.250
     11.7710     7.11960    -99999.0    -99999.0    -99999.0
    -99999.0     61277.4     41.6600
   386.260
     11.8079     14.0783    -99999.0    -99999.0    -99999.0
    -99999.0     61277.4     41.6560
   386.270
     11.8420     20.0829    -99999.0    -99999.0    -99999.0
    -99999.0     61277.4     41.6560
   386.280
     11.8820     17.5896    -99999.0    -99999.0    -99999.0
    -99999.0     61277.4     41.6580
   386.290
     11.9578     14.1102    -99999.0    -99999.0    -99999.0
    -99999.0     61277.4     41.6580
   386.300
     12.0000     7.11960    -99999.0    -99999.0    -99999.0
    -99999.0     61277.4     41.6600
   386.310
     12.0350     42.0196    -99999.0    -99999.0    -99999.0
    -99999.0     61277.4     41.6580
