#------------------------------------------------------------
~VERSION INFORMATION
VERS.               2.0  :CWLS LOG ASCII STANDARD - VERSION 2.0
WRAP.               YES  :MULTIPLE LINES PER DEPTH STEP
#------------------------------------------------------------
~WELL INFORMATION
STRT.M        -0.700000  :FIRST INDEX VALUE
STOP.M          390.050  :LAST INDEX VALUE
STEP.M        0.0100000  :STEP
NULL.            -99999  :NULL VALUE
COMP.                    :COMPANY
WELL.                    :WELL
FLD.                     :FIELD
LOC.                     :LOCATION
SRVC.                    :
CTRY.                    :COUNTRY
STAT.                    :STATE
CNTY.                    :
DATE.                    :DATE
API.                     :
#------------------------------------------------------------
~CURVE INFORMATION
DEPT.M                   :DEPTH
BOREHOLE_DIAMETER.INCH   :Borehole Diameter
NATURAL_GAMMA_RAY.API    :Natural Gamma Ray
LONG_NORMAL_RESISTIVITY_64".OHMM   :Long Normal Resistivity 64"
SHORT_NORMAL_RESISTIVITY_16".OHMM   :Short Normal Resistivity 16"
SPR.OHM                  :SPR
SP.MV                    :SP
CONDUCTIVITY.USIE        :Conductivity
TEMPERATURE.°C           :Temperature
#------------------------------------------------------------
~PARAMETER INFORMATION
Abbreviations_. _m.b.g.l. - meters below ground level_m.a.s.l. - meters above sea level_API - American Petroleum Institute Counts_In / " - Inches_DEGC - Degree Celsius_ppm - parts per million (total dissolved solids)_g/cc - grams per cubic centimeter_% - percent porosity_Date Format_ DD/MM/YYYY  :Abbreviations:
CLIENT_.  Suhab Alsahel  :CLIENT:
DateTime#1.  30/03/2024  :DateTime#1
DEPTH_LOGGER_. 390 m.b.g.l.  :DEPTH LOGGER:
DEPTH-TO-WATER_.  filled  :DEPTH-TO-WATER:
DRILLING_DEPTH_. 390 m.b.g.l  :DRILLING DEPTH:
ELEVATION_.    m.a.s.l.  :ELEVATION:
FLUID_IN_HOLE_.     Mud  :FLUID IN HOLE:
Geophysical_Well_Logging_of. K-GEP-1  :Geophysical Well Logging of
LATITUDE_.  N 22.300800  :LATITUDE:
LOGGING_ENGINEERS_.  Eng. Qais  :LOGGING ENGINEERS:
LONGITUDE_. E 39.114322  :LONGITUDE:
TYPE_OF_LOG_. Composite  :TYPE OF LOG:
WITNESSED_BY_.           :WITNESSED BY:
#------------------------------------------------------------
~OTHER
#------------------------------------------------------------
~A
# ...
   209.460
     17.7371    0.139600     23.6680     5.17400    0.258000
    -239.898     61277.4     38.6390
   209.470
     17.7370    0.139600     23.6680     5.17400    0.258000
    -239.898     61277.4     38.6390
   209.480
     18.1190    0.139600     23.6680     5.17400    0.258000
    -239.898     61277.4     38.6390
   209.490
     18.1190    0.139600     23.6680     5.17400    0.258000
    -239.898     61277.4     38.6390
   209.500
     17.2723    0.139600     23.6010     5.17400    0.258000
    -239.898     61277.4     38.6390
   209.510
     17.2710     7.11960     23.6010     5.17400    0.212000
    -240.001     61277.4     38.6410
   209.520
     17.2710     7.11960     23.6010     5.12900    0.212000
    -240.001     61277.4     38.6410
   209.530
     17.3530    0.139600     23.6010     5.12900    0.212000
    -240.001     61277.4     38.6410
   209.540
     17.3530    0.139600     23.6010     5.12900    0.212000
    -240.001     61277.4     38.6410
   209.550
     17.4648    0.139600     23.6010     5.12900    0.212000
    -240.001     61277.4     38.6410
   209.560
     17.4650    0.139600     23.6010     5.12900    0.212000
    -240.001     61277.4     38.6390
   209.570
     17.5978    0.139600     23.5620     5.12900    0.370000
    -241.039     61277.4     38.6390
   209.580
     17.5980    0.139600     23.5620     5.12900    0.370000
    -241.039     61277.4     38.6390
   209.590
     17.5980    0.139600     23.5620     5.01500    0.370000
    -241.039     61277.4     38.6390
   209.600
     17.8856    0.139600     23.5620     5.01500    0.370000
    -241.039     61277.4     38.6390
   209.610
     17.8860    0.139600     23.5620     5.01500    0.370000
    -241.039     61277.4     38.6390
   209.620
     18.1840     14.0996     23.5620     5.01500    0.370000
    -241.039     61277.4     38.6420
   209.630
     18.1840     14.0996     23.5620     5.01500    0.370000
    -241.039     61277.4     38.6420
   209.640
     17.3310     14.0996     23.3890     5.01500    0.398000
    -240.000     61277.4     38.6360
   209.650
     17.3310     7.11960     23.3890     5.01500    0.398000
    -240.000     61277.4     38.6360
   209.660
     17.3310     7.11960     23.3890     4.99300    0.398000
    -240.000     61277.4     38.6360
   209.670
     17.3570    0.139600     23.3890     4.99300    0.398000
    -240.000     61277.4     38.6390
   209.680
     17.3570    0.139600     23.3890     4.99300    0.398000
    -240.000     61277.4     38.6390
   209.690
     17.3570    0.139600     23.3890     4.99300    0.398000
    -240.000     61277.4     38.6440
   209.700
     17.3570     7.11960     23.3890     4.99300    0.398000
    -240.000     61277.4     38.6440
   209.710
     16.6611     7.11960     23.3600     4.99300    0.240000
    -240.706     61277.4     38.6440
   209.720
     16.6600     7.11960     23.3600     5.03800    0.240000
    -240.706     61277.4     38.6410
   209.730
     16.6600     7.11960     23.3600     5.03800    0.240000
    -240.706     61277.4     38.6410
   209.740
     16.5901     7.11960     23.3600     5.03800    0.240000
    -240.706     61277.4     38.6440
   209.750
     16.5900     7.11960     23.3600     5.03800    0.240000
    -240.706     61277.4     38.6440
   209.760
     16.8450     7.11960     23.3600     5.03800    0.240000
    -240.706     61277.4     38.6440
   209.770
     16.8450    0.150240     23.3600     5.03800    0.231000
    -240.706     61277.4     38.6410
   209.780
     17.2190    0.139600     23.2550     5.03800    0.231000
    -240.791     61277.4     38.6410
   209.790
     17.2190     7.11960     23.2550     5.12900    0.231000
    -240.791     61277.4     38.6410
   209.800
     17.2190     7.11960     23.2550     5.12900    0.231000
    -240.791     61277.4     38.6420
   209.810
     17.3700    0.139600     23.2550     5.12900    0.231000
    -240.791     61277.4     38.6420
   209.820
     17.3700    0.139600     23.2550     5.12900    0.231000
    -240.791     61277.4     38.6410
   209.830
     17.5917    0.139600     23.2550     5.12900    0.231000
    -240.791     61277.4     38.6410
   209.840
     17.5920    0.139600     23.2550     5.12900    0.203000
    -240.791     61277.4     38.6410
   209.850
     18.0703    0.139600     23.2360     5.12900    0.203000
    -240.461     61277.4     38.6420
   209.860
     18.0710    0.139600     23.2360     4.94700    0.203000
    -240.461     61277.4     38.6420
   209.870
     18.5010    0.139600     23.2360     4.94700    0.203000
    -240.461     61277.4     38.6420
   209.880
     18.5010     7.10896     23.2360     4.94700    0.203000
    -240.461     61277.4     38.6420
   209.890
     18.5010     7.11960     23.2360     4.94700    0.203000
    -240.461     61277.4     38.6420
   209.900
     17.8460    0.139600     23.2360     4.94700    0.203000
    -240.461     61277.4     38.6390
   209.910
     17.8460    0.139600     23.2360     4.94700    0.333000
    -240.461     61277.4     38.6390
   209.920
     17.0960    0.139600     23.6390     4.94700    0.333000
    -240.401     61277.4     38.6390
   209.930
     17.0960    0.139600     23.6390     5.01500    0.333000
    -240.401     61277.4     38.6400
   209.940
     17.3546    0.139600     23.6390     5.01500    0.333000
    -240.401     61277.4     38.6400
   209.950
     17.3550    0.139600     23.6390     5.01500    0.333000
    -240.401     61277.4     38.6430
   209.960
     17.3550    0.139600     23.6390     5.01500    0.333000
    -240.401     61277.4     38.6430
   209.970
     17.7344     14.0783     23.6390     5.01500    0.333000
    -240.401     61277.4     38.6430
   209.980
     17.7350     14.0996     23.6390     5.01500    0.333000
    -240.401     61277.4     38.6420
   209.990
     17.7130     14.0996     23.5430     5.01500    0.333000
    -240.965     61277.4     38.6420
   210.000
     17.7130     14.0996     23.5430     5.01500    0.333000
    -240.965     61277.4     38.6420
   210.010
     17.6140     14.0996     23.5430     5.01500    0.333000
    -240.965     61277.4     38.6400
   210.020
     17.6140    0.160880     23.5430     5.01500    0.333000
    -240.965     61277.4     38.6400
   210.030
     17.6140    0.139600     23.5430     4.99300    0.333000
    -240.965     61277.4     38.6420
   210.040
     16.7710    0.139600     23.5430     4.99300    0.435000
    -240.965     61277.4     38.6420
   210.050
     16.7710    0.139600     23.5430     4.99300    0.435000
    -240.965     61277.4     38.6420
   210.060
     16.7480    0.139600     23.0530     4.99300    0.435000
    -240.042     61277.4     38.6420
   210.070
     16.7480    0.139600     23.0530     4.99300    0.435000
    -240.042     61277.4     38.6420
   210.080
     16.9088    0.139600     23.0530     4.99300    0.435000
    -240.042     61277.4     38.6400
   210.090
     16.9090    0.139600     23.0530     4.99300    0.435000
    -240.042     61277.4     38.6400
   210.100
     16.9090    0.139600     23.0530     4.80000    0.435000
    -240.042     61277.4     38.6400
   210.110
     17.0488     7.10894     23.0530     4.80000    0.342000
    -240.042     61277.4     38.6420
   210.120
     17.0490     7.11960     23.0530     4.80000    0.342000
    -241.031     61277.4     38.6420
   210.130
     17.4274    0.150240     23.1870     4.80000    0.342000
    -241.031     61277.4     38.6420
   210.140
     17.4280    0.139600     23.1870     4.80000    0.342000
    -241.031     61277.4     38.6420
   210.150
     17.7890    0.139600     23.1870     4.80000    0.342000
    -241.031     61277.4     38.6420
   210.160
     17.7890     7.10896     23.1870     4.80000    0.342000
    -241.031     61277.4     38.6420
   210.170
     17.7890     7.11960     23.1870     5.07200    0.342000
    -241.031     61277.4     38.6420
   210.180
     17.9630     7.11960     23.1870     5.07200    0.342000
    -241.031     61277.4     38.6420
   210.190
     17.9630     7.11960     23.1390     5.07200    0.342000
    -240.489     61277.4     38.6400
