#------------------------------------------------------------
~VERSION INFORMATION
VERS.               2.0  :CWLS LOG ASCII STANDARD - VERSION 2.0
WRAP.               YES  :MULTIPLE LINES PER DEPTH STEP
#------------------------------------------------------------
~WELL INFORMATION
STRT.M        -0.700000  :FIRST INDEX VALUE
STOP.M          390.050  :LAST INDEX VALUE
STEP.M        0.0100000  :STEP
NULL.            -99999  :NULL VALUE
COMP.                    :COMPANY
WELL.                    :WELL
FLD.                     :FIELD
LOC.                     :LOCATION
SRVC.                    :
CTRY.                    :COUNTRY
STAT.                    :STATE
CNTY.                    :
DATE.                    :DATE
API.                     :
#------------------------------------------------------------
~CURVE INFORMATION
DEPT.M                   :DEPTH
BOREHOLE_DIAMETER.INCH   :Borehole Diameter
NATURAL_GAMMA_RAY.API    :Natural Gamma Ray
LONG_NORMAL_RESISTIVITY_64".OHMM   :Long Normal Resistivity 64"
SHORT_NORMAL_RESISTIVITY_16".OHMM   :Short Normal Resistivity 16"
SPR.OHM                  :SPR
SP.MV                    :SP
CONDUCTIVITY.USIE        :Conductivity
TEMPERATURE.°C           :Temperature
#------------------------------------------------------------
~PARAMETER INFORMATION
Abbreviations_. _m.b.g.l. - meters below ground level_m.a.s.l. - meters above sea level_API - American Petroleum Institute Counts_In / " - Inches_DEGC - Degree Celsius_ppm - parts per million (total dissolved solids)_g/cc - grams per cubic centimeter_% - percent porosity_Date Format_ DD/MM/YYYY  :Abbreviations:
CLIENT_.  Suhab Alsahel  :CLIENT:
DateTime#1.  30/03/2024  :DateTime#1
DEPTH_LOGGER_. 390 m.b.g.l.  :DEPTH LOGGER:
DEPTH-TO-WATER_.  filled  :DEPTH-TO-WATER:
DRILLING_DEPTH_. 390 m.b.g.l  :DRILLING DEPTH:
ELEVATION_.    m.a.s.l.  :ELEVATION:
FLUID_IN_HOLE_.     Mud  :FLUID IN HOLE:
Geophysical_Well_Logging_of. K-GEP-1  :Geophysical Well Logging of
LATITUDE_.  N 22.300800  :LATITUDE:
LOGGING_ENGINEERS_.  Eng. Qais  :LOGGING ENGINEERS:
LONGITUDE_. E 39.114322  :LONGITUDE:
TYPE_OF_LOG_. Composite  :TYPE OF LOG:
WITNESSED_BY_.           :WITNESSED BY:
#------------------------------------------------------------
~OTHER
#------------------------------------------------------------
~A
# ...
   33.3400
     10.4340     7.11960    -99999.0    -99999.0    -99999.0
    -99999.0     829.186     31.7290
   33.3500
     10.4340     7.11960    -99999.0    -99999.0    -99999.0
    -99999.0     825.436     31.7290
   33.3600
     10.4340     7.11960    -99999.0    -99999.0    -99999.0
    -99999.0     825.436     31.7270
   33.3700
     10.4340     7.11960    -99999.0    -99999.0    -99999.0
    -99999.0     825.436     31.7270
   33.3800
     10.4340     7.11960    -99999.0    -99999.0    -99999.0
    -99999.0     825.436     31.7270
   33.3900
     10.4330     7.11960    -99999.0    -99999.0    -99999.0
    -99999.0     829.180     31.7200
   33.4000
     10.4330    0.144924    -99999.0    -99999.0    -99999.0
    -99999.0     829.186     31.7200
   33.4100
     10.4330    0.139600    -99999.0    -99999.0    -99999.0
    -99999.0     829.186     31.7200
   33.4200
     10.4330    0.139600    -99999.0    -99999.0    -99999.0
    -99999.0     829.127     31.7200
   33.4300
     10.4340     13.4250    -99999.0    -99999.0    -99999.0
    -99999.0     829.127     31.7160
   33.4400
     10.4340     13.4351    -99999.0    -99999.0    -99999.0
    -99999.0     829.127     31.7160
   33.4500
     10.4340     13.4351    -99999.0    -99999.0    -99999.0
    -99999.0     827.314     31.7160
   33.4600
     10.4330     13.4351    -99999.0    -99999.0    -99999.0
    -99999.0     827.311     31.7080
   33.4700
     10.4330    0.139600    -99999.0    -99999.0    -99999.0
    -99999.0     827.311     31.7080
   33.4800
     10.4330    0.139600    -99999.0    -99999.0    -99999.0
    -99999.0     827.311     31.7080
   33.4900
     10.4330    0.139600    -99999.0    -99999.0    -99999.0
    -99999.0     829.125     31.7020
   33.5000
     10.4340    0.139600    -99999.0    -99999.0    -99999.0
    -99999.0     829.127     31.7020
   33.5100
     10.4340    0.139600    -99999.0    -99999.0    -99999.0
    -99999.0     829.127     31.7020
   33.5200
     10.4340    0.139600    -99999.0    -99999.0    -99999.0
    -99999.0     829.127     31.7020
   33.5300
     10.4340    0.139600    -99999.0    -99999.0    -99999.0
    -99999.0     829.127     31.6950
   33.5400
     10.4340     21.0796    -99999.0    -99999.0    -99999.0
    -99999.0     829.127     31.6950
   33.5500
     10.4340     21.0796    -99999.0    -99999.0    -99999.0
    -99999.0     829.127     31.6950
   33.5600
     10.4340     21.0796    -99999.0    -99999.0    -99999.0
    -99999.0     825.437     31.6900
   33.5700
     10.4330     14.0996    -99999.0    -99999.0    -99999.0
    -99999.0     825.436     31.6900
   33.5800
     10.4330     14.0996    -99999.0    -99999.0    -99999.0
    -99999.0     825.436     31.6900
   33.5900
     10.4330     14.0996    -99999.0    -99999.0    -99999.0
    -99999.0     825.436     31.6880
   33.6000
     10.4340     21.0796    -99999.0    -99999.0    -99999.0
    -99999.0     825.436     31.6880
   33.6100
     10.4340     21.0796    -99999.0    -99999.0    -99999.0
    -99999.0     825.436     31.6880
   33.6200
     10.4340     21.0796    -99999.0    -99999.0    -99999.0
    -99999.0     829.126     31.6880
   33.6300
     10.4340     21.0796    -99999.0    -99999.0    -99999.0
    -99999.0     829.127     31.6900
   33.6400
     10.4340     7.14091    -99999.0    -99999.0    -99999.0
    -99999.0     829.127     31.6900
   33.6500
     10.4340     7.11960    -99999.0    -99999.0    -99999.0
    -99999.0     829.127     31.6900
   33.6600
     10.4340     7.11960    -99999.0    -99999.0    -99999.0
    -99999.0     829.127     31.6910
   33.6700
     10.4330     28.0276    -99999.0    -99999.0    -99999.0
    -99999.0     829.127     31.6910
   33.6800
     10.4330     28.0596    -99999.0    -99999.0    -99999.0
    -99999.0     829.127     31.6910
   33.6900
     10.4330     28.0596    -99999.0    -99999.0    -99999.0
    -99999.0     827.252     31.6980
   33.7000
     10.4330     28.0596    -99999.0    -99999.0    -99999.0
    -99999.0     827.252     31.6980
   33.7100
     10.4330    0.160907    -99999.0    -99999.0    -99999.0
    -99999.0     827.252     31.6980
   33.7200
     10.4330    0.139600    -99999.0    -99999.0    -99999.0
    -99999.0     829.127     31.6980
   33.7300
     10.4330    0.139600    -99999.0    -99999.0    -99999.0
    -99999.0     829.127     31.7020
   33.7400
     10.4330    0.139600    -99999.0    -99999.0    -99999.0
    -99999.0     829.127     31.7020
   33.7500
     10.4330    0.139600    -99999.0    -99999.0    -99999.0
    -99999.0     829.127     31.7020
   33.7600
     10.4330    0.139600    -99999.0    -99999.0    -99999.0
    -99999.0     827.256     31.7090
   33.7700
     10.4330    0.139600    -99999.0    -99999.0    -99999.0
    -99999.0     827.252     31.7090
   33.7800
     10.4330     14.0996    -99999.0    -99999.0    -99999.0
    -99999.0     827.252     31.7090
   33.7900
     10.4330     14.0996    -99999.0    -99999.0    -99999.0
    -99999.0     825.436     31.7090
   33.8000
     10.4330     14.0996    -99999.0    -99999.0    -99999.0
    -99999.0     825.436     31.7120
   33.8100
     10.4330     7.12226    -99999.0    -99999.0    -99999.0
    -99999.0     825.436     31.7120
   33.8200
     10.4330     7.11960    -99999.0    -99999.0    -99999.0
    -99999.0     827.252     31.7120
   33.8300
     10.4330     7.11960    -99999.0    -99999.0    -99999.0
    -99999.0     827.252     31.7160
   33.8400
     10.4330     7.11960    -99999.0    -99999.0    -99999.0
    -99999.0     827.252     31.7160
   33.8500
     10.4330     7.11960    -99999.0    -99999.0    -99999.0
    -99999.0     827.252     31.7160
   33.8600
     10.4330     7.11960    -99999.0    -99999.0    -99999.0
    -99999.0     825.439     31.7250
   33.8700
     10.4330     7.11960    -99999.0    -99999.0    -99999.0
    -99999.0     825.436     31.7250
   33.8800
     10.4330    0.139600    -99999.0    -99999.0    -99999.0
    -99999.0     825.436     31.7250
   33.8900
     10.4330    0.139600    -99999.0    -99999.0    -99999.0
    -99999.0     827.308     31.7250
   33.9000
     10.4330    0.139600    -99999.0    -99999.0    -99999.0
    -99999.0     827.311     31.7260
   33.9100
     10.4330    0.139600    -99999.0    -99999.0    -99999.0
    -99999.0     827.311     31.7260
   33.9200
     10.4330     7.10895    -99999.0    -99999.0    -99999.0
    -99999.0     827.311     31.7260
   33.9300
     10.4330     7.11960    -99999.0    -99999.0    -99999.0
    -99999.0     825.437     31.7260
   33.9400
     10.4330     7.11960    -99999.0    -99999.0    -99999.0
    -99999.0     825.436     31.7260
   33.9500
     10.4330     14.0863    -99999.0    -99999.0    -99999.0
    -99999.0     825.436     31.7260
   33.9600
     10.4330     14.0996    -99999.0    -99999.0    -99999.0
    -99999.0     829.124     31.7260
   33.9700
     10.4330     14.0996    -99999.0    -99999.0    -99999.0
    -99999.0     829.127     31.7260
   33.9800
     10.4330     14.0996    -99999.0    -99999.0    -99999.0
    -99999.0     829.127     31.7260
   33.9900
     10.4330    0.155572    -99999.0    -99999.0    -99999.0
    -99999.0     829.186     31.7260
   34.0000
     10.4330    0.139600    -99999.0    -99999.0    -99999.0
    -99999.0     829.186     31.7230
   34.0100
     10.4330    0.139600    -99999.0    -99999.0    -99999.0
    -99999.0     829.186     31.7230
   34.0200
     10.4330     21.0556    -99999.0    -99999.0    -99999.0
    -99999.0     829.186     31.7230
   34.0300
     10.4330     21.0796    -99999.0    -99999.0    -99999.0
    -99999.0     827.311     31.7200
   34.0400
     10.4330     21.0796    -99999.0    -99999.0    -99999.0
    -99999.0     827.311     31.7200
   34.0500
     10.4330     21.0796    -99999.0    -99999.0    -99999.0
    -99999.0     827.311     31.7200
   34.0600
     10.4330     7.12492    -99999.0    -99999.0    -99999.0
    -99999.0     827.252     31.7200
   34.0700
     10.4330     7.11960    -99999.0    -99999.0    -99999.0
    -99999.0     827.252     31.7160
