#------------------------------------------------------------
~VERSION INFORMATION
VERS.               2.0  :CWLS LOG ASCII STANDARD - VERSION 2.0
WRAP.               YES  :MULTIPLE LINES PER DEPTH STEP
#------------------------------------------------------------
~WELL INFORMATION
STRT.M        -0.700000  :FIRST INDEX VALUE
STOP.M          390.050  :LAST INDEX VALUE
STEP.M        0.0100000  :STEP
NULL.            -99999  :NULL VALUE
COMP.                    :COMPANY
WELL.                    :WELL
FLD.                     :FIELD
LOC.                     :LOCATION
SRVC.                    :
CTRY.                    :COUNTRY
STAT.                    :STATE
CNTY.                    :
DATE.                    :DATE
API.                     :
#------------------------------------------------------------
~CURVE INFORMATION
DEPT.M                   :DEPTH
BOREHOLE_DIAMETER.INCH   :Borehole Diameter
NATURAL_GAMMA_RAY.API    :Natural Gamma Ray
LONG_NORMAL_RESISTIVITY_64".OHMM   :Long Normal Resistivity 64"
SHORT_NORMAL_RESISTIVITY_16".OHMM   :Short Normal Resistivity 16"
SPR.OHM                  :SPR
SP.MV                    :SP
CONDUCTIVITY.USIE        :Conductivity
TEMPERATURE.°C           :Temperature
#------------------------------------------------------------
~PARAMETER INFORMATION
Abbreviations_. _m.b.g.l. - meters below ground level_m.a.s.l. - meters above sea level_API - American Petroleum Institute Counts_In / " - Inches_DEGC - Degree Celsius_ppm - parts per million (total dissolved solids)_g/cc - grams per cubic centimeter_% - percent porosity_Date Format_ DD/MM/YYYY  :Abbreviations:
CLIENT_.  Suhab Alsahel  :CLIENT:
DateTime#1.  30/03/2024  :DateTime#1
DEPTH_LOGGER_. 390 m.b.g.l.  :DEPTH LOGGER:
DEPTH-TO-WATER_.  filled  :DEPTH-TO-WATER:
DRILLING_DEPTH_. 390 m.b.g.l  :DRILLING DEPTH:
ELEVATION_.    m.a.s.l.  :ELEVATION:
FLUID_IN_HOLE_.     Mud  :FLUID IN HOLE:
Geophysical_Well_Logging_of. K-GEP-1  :Geophysical Well Logging of
LATITUDE_.  N 22.300800  :LATITUDE:
LOGGING_ENGINEERS_.  Eng. Qais  :LOGGING ENGINEERS:
LONGITUDE_. E 39.114322  :LONGITUDE:
TYPE_OF_LOG_. Composite  :TYPE OF LOG:
WITNESSED_BY_.           :WITNESSED BY:
#------------------------------------------------------------
~OTHER
#------------------------------------------------------------
~A
# ...
   133.980
     10.4320    0.139600    -99999.0    -99999.0    -99999.0
    -99999.0     61277.4     37.4840
   133.990
     10.4320    0.139600    -99999.0    -99999.0    -99999.0
    -99999.0     61277.4     37.4840
   134.000
     10.4320    0.139600    -99999.0    -99999.0    -99999.0
    -99999.0     61277.4     37.4840
   134.010
     10.4320    0.139600    -99999.0    -99999.0    -99999.0
    -99999.0     61277.4     37.4800
   134.020
     10.4320    0.139600    -99999.0    -99999.0    -99999.0
    -99999.0     61277.4     37.4800
   134.030
     10.4320    0.139600    -99999.0    -99999.0    -99999.0
    -99999.0     61277.4     37.4800
   134.040
     10.4320    0.139600    -99999.0    -99999.0    -99999.0
    -99999.0     61277.4     37.4800
   134.050
     10.4320    0.139600    -99999.0    -99999.0    -99999.0
    -99999.0     61277.4     37.4800
   134.060
     10.4320    0.139600    -99999.0    -99999.0    -99999.0
    -99999.0     61277.4     37.4800
   134.070
     10.4330    0.139600    -99999.0    -99999.0    -99999.0
    -99999.0     61277.4     37.4800
   134.080
     10.4330     7.10894    -99999.0    -99999.0    -99999.0
    -99999.0     61277.4     37.4810
   134.090
     10.4330     7.11960    -99999.0    -99999.0    -99999.0
    -99999.0     61277.4     37.4810
   134.100
     10.4320     7.11960    -99999.0    -99999.0    -99999.0
    -99999.0     61277.4     37.4810
   134.110
     10.4320     7.11960    -99999.0    -99999.0    -99999.0
    -99999.0     61277.4     37.4820
   134.120
     10.4320    0.139600    -99999.0    -99999.0    -99999.0
    -99999.0     61277.4     37.4820
   134.130
     10.4320    0.139600    -99999.0    -99999.0    -99999.0
    -99999.0     61277.4     37.4820
   134.140
     10.4320    0.139600    -99999.0    -99999.0    -99999.0
    -99999.0     61277.4     37.4840
   134.150
     10.4320    0.139600    -99999.0    -99999.0    -99999.0
    -99999.0     61277.4     37.4840
   134.160
     10.4320    0.139600    -99999.0    -99999.0    -99999.0
    -99999.0     61277.4     37.4840
   134.170
     10.4330    0.139600    -99999.0    -99999.0    -99999.0
    -99999.0     61277.4     37.4840
   134.180
     10.4330     7.11960    -99999.0    -99999.0    -99999.0
    -99999.0     61277.4     37.4840
   134.190
     10.4330     7.11960    -99999.0    -99999.0    -99999.0
    -99999.0     61277.4     37.4840
   134.200
     10.4320     7.11960    -99999.0    -99999.0    -99999.0
    -99999.0     61277.4     37.4840
   134.210
     10.4320     7.11960    -99999.0    -99999.0    -99999.0
    -99999.0     61277.4     37.4840
   134.220
     10.4320    0.150257    -99999.0    -99999.0    -99999.0
    -99999.0     61277.4     37.4840
   134.230
     10.4320    0.139600    -99999.0    -99999.0    -99999.0
    -99999.0     61277.4     37.4840
   134.240
     10.4320    0.139600    -99999.0    -99999.0    -99999.0
    -99999.0     61277.4     37.4840
   134.250
     10.4320     7.11960    -99999.0    -99999.0    -99999.0
    -99999.0     61277.4     37.4840
   134.260
     10.4320     7.11960    -99999.0    -99999.0    -99999.0
    -99999.0     61277.4     37.4840
   134.270
     10.4330     7.11960    -99999.0    -99999.0    -99999.0
    -99999.0     61277.4     37.4850
   134.280
     10.4330    0.139600    -99999.0    -99999.0    -99999.0
    -99999.0     61277.4     37.4850
   134.290
     10.4330    0.139600    -99999.0    -99999.0    -99999.0
    -99999.0     61277.4     37.4850
   134.300
     10.4330    0.139600    -99999.0    -99999.0    -99999.0
    -99999.0     61277.4     37.4860
   134.310
     10.4330    0.139600    -99999.0    -99999.0    -99999.0
    -99999.0     61277.4     37.4860
   134.320
     10.4330    0.139600    -99999.0    -99999.0    -99999.0
    -99999.0     61277.4     37.4860
   134.330
     10.4330    0.139600    -99999.0    -99999.0    -99999.0
    -99999.0     61277.4     37.4870
   134.340
     10.4330    0.139600    -99999.0    -99999.0    -99999.0
    -99999.0     61277.4     37.4870
   134.350
     10.4330     7.10896    -99999.0    -99999.0    -99999.0
    -99999.0     61277.4     37.4870
   134.360
     10.4320     7.11960    -99999.0    -99999.0    -99999.0
    -99999.0     61277.4     37.4850
   134.370
     10.4320     7.11960    -99999.0    -99999.0    -99999.0
    -99999.0     61277.4     37.4850
   134.380
     10.4320    0.150240    -99999.0    -99999.0    -99999.0
    -99999.0     61277.4     37.4850
   134.390
     10.4320    0.139600    -99999.0    -99999.0    -99999.0
    -99999.0     61277.4     37.4870
   134.400
     10.4330    0.139600    -99999.0    -99999.0    -99999.0
    -99999.0     61277.4     37.4870
   134.410
     10.4330    0.139600    -99999.0    -99999.0    -99999.0
    -99999.0     61277.4     37.4870
   134.420
     10.4330    0.139600    -99999.0    -99999.0    -99999.0
    -99999.0     61277.4     37.4870
   134.430
     10.4320    0.139600    -99999.0    -99999.0    -99999.0
    -99999.0     61277.4     37.4870
   134.440
     10.4320    0.139600    -99999.0    -99999.0    -99999.0
    -99999.0     61277.4     37.4870
   134.450
     10.4320    0.139600    -99999.0    -99999.0    -99999.0
    -99999.0     61277.4     37.4900
   134.460
     10.4330    0.139600    -99999.0    -99999.0    -99999.0
    -99999.0     61277.4     37.4900
   134.470
     10.4330    0.139600    -99999.0    -99999.0    -99999.0
    -99999.0     61277.4     37.4900
   134.480
     10.4330     7.11960    -99999.0    -99999.0    -99999.0
    -99999.0     61277.4     37.4900
   134.490
     10.4330     7.11960    -99999.0    -99999.0    -99999.0
    -99999.0     61277.4     37.4890
   134.500
     10.4320     7.11960    -99999.0    -99999.0    -99999.0
    -99999.0     61277.4     37.4890
   134.510
     10.4320    0.139600    -99999.0    -99999.0    -99999.0
    -99999.0     61277.4     37.4890
   134.520
     10.4320    0.139600    -99999.0    -99999.0    -99999.0
    -99999.0     61277.4     37.4890
   134.530
     10.4320    0.139600    -99999.0    -99999.0    -99999.0
    -99999.0     61277.4     37.4890
   134.540
     10.4320    0.139600    -99999.0    -99999.0    -99999.0
    -99999.0     61277.4     37.4890
   134.550
     10.4320     7.10896    -99999.0    -99999.0    -99999.0
    -99999.0     61277.4     37.4900
   134.560
     10.4320     7.11960    -99999.0    -99999.0    -99999.0
    -99999.0     61277.4     37.4900
   134.570
     10.4320     7.11960    -99999.0    -99999.0    -99999.0
    -99999.0     61277.4     37.4900
   134.580
     10.4320    0.150257    -99999.0    -99999.0    -99999.0
    -99999.0     61277.4     37.4890
   134.590
     10.4320    0.139600    -99999.0    -99999.0    -99999.0
    -99999.0     61277.4     37.4890
   134.600
     10.4320    0.139600    -99999.0    -99999.0    -99999.0
    -99999.0     61277.4     37.4890
   134.610
     10.4320    0.139600    -99999.0    -99999.0    -99999.0
    -99999.0     61277.4     37.4890
   134.620
     10.4320    0.139600    -99999.0    -99999.0    -99999.0
    -99999.0     61277.4     37.4890
   134.630
     10.4320    0.139600    -99999.0    -99999.0    -99999.0
    -99999.0     61277.4     37.4890
   134.640
     10.4320    0.139600    -99999.0    -99999.0    -99999.0
    -99999.0     61277.4     37.4930
   134.650
     10.4320    0.139600    -99999.0    -99999.0    -99999.0
    -99999.0     61277.4     37.4930
   134.660
     10.4320    0.139600    -99999.0    -99999.0    -99999.0
    -99999.0     61277.4     37.4930
   134.670
     10.4320    0.139600    -99999.0    -99999.0    -99999.0
    -99999.0     61277.4     37.4930
   134.680
     10.4320    0.139600    -99999.0    -99999.0    -99999.0
    -99999.0     61277.4     37.4930
   134.690
     10.4330    0.139600    -99999.0    -99999.0    -99999.0
    -99999.0     61277.4     37.4930
   134.700
     10.4330    0.139600    -99999.0    -99999.0    -99999.0
    -99999.0     61277.4     37.4930
   134.710
     10.4330    0.139600    -99999.0    -99999.0    -99999.0
    -99999.0     61277.4     37.4930
