#------------------------------------------------------------
~VERSION INFORMATION
VERS.               2.0  :CWLS LOG ASCII STANDARD - VERSION 2.0
WRAP.               YES  :MULTIPLE LINES PER DEPTH STEP
#------------------------------------------------------------
~WELL INFORMATION
STRT.M        -0.700000  :FIRST INDEX VALUE
STOP.M          390.050  :LAST INDEX VALUE
STEP.M        0.0100000  :STEP
NULL.            -99999  :NULL VALUE
COMP.                    :COMPANY
WELL.                    :WELL
FLD.                     :FIELD
LOC.                     :LOCATION
SRVC.                    :
CTRY.                    :COUNTRY
STAT.                    :STATE
CNTY.                    :
DATE.                    :DATE
API.                     :
#------------------------------------------------------------
~CURVE INFORMATION
DEPT.M                   :DEPTH
BOREHOLE_DIAMETER.INCH   :Borehole Diameter
NATURAL_GAMMA_RAY.API    :Natural Gamma Ray
LONG_NORMAL_RESISTIVITY_64".OHMM   :Long Normal Resistivity 64"
SHORT_NORMAL_RESISTIVITY_16".OHMM   :Short Normal Resistivity 16"
SPR.OHM                  :SPR
SP.MV                    :SP
CONDUCTIVITY.USIE        :Conductivity
TEMPERATURE.°C           :Temperature
#------------------------------------------------------------
~PARAMETER INFORMATION
Abbreviations_. _m.b.g.l. - meters below ground level_m.a.s.l. - meters above sea level_API - American Petroleum Institute Counts_In / " - Inches_DEGC - Degree Celsius_ppm - parts per million (total dissolved solids)_g/cc - grams per cubic centimeter_% - percent porosity_Date Format_ DD/MM/YYYY  :Abbreviations:
CLIENT_.  Suhab Alsahel  :CLIENT:
DateTime#1.  30/03/2024  :DateTime#1
DEPTH_LOGGER_. 390 m.b.g.l.  :DEPTH LOGGER:
DEPTH-TO-WATER_.  filled  :DEPTH-TO-WATER:
DRILLING_DEPTH_. 390 m.b.g.l  :DRILLING DEPTH:
ELEVATION_.    m.a.s.l.  :ELEVATION:
FLUID_IN_HOLE_.     Mud  :FLUID IN HOLE:
Geophysical_Well_Logging_of. K-GEP-1  :Geophysical Well Logging of
LATITUDE_.  N 22.300800  :LATITUDE:
LOGGING_ENGINEERS_.  Eng. Qais  :LOGGING ENGINEERS:
LONGITUDE_. E 39.114322  :LONGITUDE:
TYPE_OF_LOG_. Composite  :TYPE OF LOG:
WITNESSED_BY_.           :WITNESSED BY:
#------------------------------------------------------------
~OTHER
#------------------------------------------------------------
~A
# ...
   310.100
     10.1350     21.1222     2.00000    0.621000   -0.430000
    -266.325     61277.4     39.6050
   310.110
     10.1350     21.0796     2.00000    0.621000   -0.430000
    -266.325     61277.4     39.6040
   310.120
     10.1360     35.0396     2.00000    0.621000   -0.430000
    -266.325     61277.4     39.6040
   310.130
     10.1360     35.0396     2.00000    0.587000   -0.374000
    -266.325     61277.4     39.6040
   310.140
     10.1360     35.0396     2.00000    0.587000   -0.374000
    -266.325     61277.4     39.6060
   310.150
     10.1220     35.0396     2.00000    0.587000   -0.374000
    -266.325     61277.4     39.6060
   310.160
     10.1220     21.1222     2.00000    0.587000   -0.374000
    -266.359     61277.4     39.6060
   310.170
     10.1220     21.0796     2.05700    0.587000   -0.374000
    -266.359     61277.4     39.6060
   310.180
     10.1220     14.0996     2.05700    0.587000   -0.374000
    -266.359     61277.4     39.6060
   310.190
     10.1250     14.0996     2.05700    0.485000   -0.374000
    -266.359     61277.4     39.6050
   310.200
     10.1250     14.0996     2.05700    0.485000   -0.374000
    -266.359     61277.4     39.6050
   310.210
     10.1160     13.4351     2.05700    0.485000   -0.374000
    -266.359     61277.4     39.6050
   310.220
     10.1160     13.4351     2.05700    0.485000   -0.374000
    -266.833     61277.4     39.6050
   310.230
     10.1190     7.13885     1.85600    0.485000   -0.374000
    -266.833     61277.4     39.6050
   310.240
     10.1190     7.11960     1.85600    0.485000   -0.374000
    -266.833     61277.4     39.6050
   310.250
     10.1580     14.0996     1.85600    0.281000   -0.318000
    -266.833     61277.4     39.6050
   310.260
     10.1580     14.0996     1.85600    0.281000   -0.318000
    -266.833     61277.4     39.6050
   310.270
     10.2040     35.0396     1.85600    0.281000   -0.318000
    -266.833     61277.4     39.6050
   310.280
     10.2040     35.0396     1.85600    0.281000   -0.318000
    -267.158     61277.4     39.6050
   310.290
     10.2309     21.1222     1.98100    0.281000   -0.318000
    -267.158     61277.4     39.6050
   310.300
     10.2310     21.0796     1.98100    0.281000   -0.318000
    -267.158     61277.4     39.6050
   310.310
     10.3840     28.0596     1.98100    0.383000   -0.318000
    -267.158     61277.4     39.6040
   310.320
     10.3840     28.0596     1.98100    0.383000   -0.356000
    -267.158     61277.4     39.6040
   310.330
     10.4390     21.0796     1.98100    0.383000   -0.356000
    -267.158     61277.4     39.6050
   310.340
     10.4390     21.0796     1.98100    0.383000   -0.356000
    -267.668     61277.4     39.6050
   310.350
     10.4609    0.203441     2.03800    0.383000   -0.356000
    -267.668     61277.4     39.6050
   310.360
     10.4610    0.139600     2.03800    0.383000   -0.356000
    -267.668     61277.4     39.6050
   310.370
     10.4940     14.0996     2.03800    0.337000   -0.356000
    -267.668     61277.4     39.6050
   310.380
     10.4940     14.0996     2.03800    0.337000   -0.402000
    -267.668     61277.4     39.6040
   310.390
     10.5129     14.0996     2.03800    0.337000   -0.402000
    -267.668     61277.4     39.6040
   310.400
     10.5130     14.0996     2.03800    0.337000   -0.402000
    -269.140     61277.4     39.6050
   310.410
     10.5459     21.0583     2.28800    0.337000   -0.402000
    -269.140     61277.4     39.6050
   310.420
     10.5460     21.0796     2.28800    0.337000   -0.402000
    -269.140     61277.4     39.6060
   310.430
     10.5460    0.139600     2.28800    0.303000   -0.402000
    -269.140     61277.4     39.6060
   310.440
     10.5420    0.139600     2.28800    0.303000   -0.393000
    -269.140     61277.4     39.6060
   310.450
     10.5420    0.139600     2.28800    0.303000   -0.393000
    -269.140     61277.4     39.6050
   310.460
     10.4690     14.0996     2.28800    0.303000   -0.393000
    -270.067     61277.4     39.6050
   310.470
     10.4690     14.0996     2.24000    0.303000   -0.393000
    -270.067     61277.4     39.6050
   310.480
     10.6554     7.14088     2.24000    0.303000   -0.393000
    -270.067     61277.4     39.6050
   310.490
     10.6560     7.11960     2.24000    0.235000   -0.393000
    -270.067     61277.4     39.6050
   310.500
     10.7840     7.11960     2.24000    0.235000   -0.449000
    -270.067     61277.4     39.6050
   310.510
     10.7840     7.11960     2.24000    0.235000   -0.449000
    -270.067     61277.4     39.6050
   310.520
     10.7840     14.0996     2.24000    0.235000   -0.449000
    -270.085     61277.4     39.6050
   310.530
     10.9350     14.0996     2.30700    0.235000   -0.449000
    -270.085     61277.4     39.6050
   310.540
     10.9350     21.0583     2.30700    0.235000   -0.449000
    -270.085     61277.4     39.6070
   310.550
     11.1280     21.0796     2.30700    0.405000   -0.449000
    -270.085     61277.4     39.6070
   310.560
     11.1280     42.0196     2.30700    0.405000   -0.486000
    -270.085     61277.4     39.6070
   310.570
     11.2050     42.0196     2.30700    0.405000   -0.486000
    -270.085     61277.4     39.6050
   310.580
     11.2050     7.11960     2.30700    0.326000   -0.486000
    -270.364     61277.4     39.6050
   310.590
     11.1620     7.11960     2.08600    0.326000   -0.486000
    -270.364     61277.4     39.6060
   310.600
     11.1620     34.9545     2.08600    0.326000   -0.486000
    -270.364     61277.4     39.6060
   310.610
     11.1760     35.0396     2.08600    0.326000   -0.486000
    -270.364     61277.4     39.6050
   310.620
     11.1760     14.0996     2.08600    0.326000   -0.430000
    -270.364     61277.4     39.6050
   310.630
     11.1100     14.0996     2.08600    0.326000   -0.430000
    -270.364     61277.4     39.6050
   310.640
     11.1100     14.0996     2.08600    0.360000   -0.430000
    -269.889     61277.4     39.6040
   310.650
     11.0390     14.0996     2.24000    0.360000   -0.430000
    -269.889     61277.4     39.6040
   310.660
     11.0390     14.0996     2.24000    0.360000   -0.430000
    -269.889     61277.4     39.6060
   310.670
     11.0629     14.0996     2.24000    0.360000   -0.430000
    -269.889     61277.4     39.6060
   310.680
     11.0630     7.11960     2.24000    0.360000   -0.356000
    -269.889     61277.4     39.6060
   310.690
     11.1460     7.11960     2.24000    0.360000   -0.356000
    -269.889     61277.4     39.6060
   310.700
     11.1460     7.11960     2.24000    0.349000   -0.356000
    -269.889     61277.4     39.6060
   310.710
     11.2090     7.11960     2.10500    0.349000   -0.356000
    -269.729     61277.4     39.6090
   310.720
     11.2090     7.11960     2.10500    0.349000   -0.356000
    -269.729     61277.4     39.6090
   310.730
     11.2020     7.11960     2.10500    0.349000   -0.356000
    -269.729     61277.4     39.6070
   310.740
     11.2020     7.11960     2.10500    0.349000   -0.374000
    -269.729     61277.4     39.6070
   310.750
     11.1410     28.0596     2.10500    0.349000   -0.374000
    -269.729     61277.4     39.6060
   310.760
     11.1410     28.0596     2.10500    0.349000   -0.374000
    -269.729     61277.4     39.6060
   310.770
     11.0560     7.11960     2.14400    0.405000   -0.374000
    -269.574     61277.4     39.6060
   310.780
     11.0560     7.11960     2.14400    0.405000   -0.374000
    -269.574     61277.4     39.6080
   310.790
     11.0560     41.9132     2.14400    0.405000   -0.374000
    -269.574     61277.4     39.6080
   310.800
     11.1380     42.0196     2.14400    0.405000   -0.374000
    -269.574     61277.4     39.6060
   310.810
     11.1380     20.0829     2.14400    0.405000   -0.374000
    -269.574     61277.4     39.6060
   310.820
     11.0680     20.0829     2.14400    0.405000   -0.374000
    -269.574     61277.4     39.6060
   310.830
     11.0680     7.11960     2.02900    0.224000   -0.374000
    -269.528     61277.4     39.6080
