#------------------------------------------------------------
~VERSION INFORMATION
VERS.               2.0  :CWLS LOG ASCII STANDARD - VERSION 2.0
WRAP.               YES  :MULTIPLE LINES PER DEPTH STEP
#------------------------------------------------------------
~WELL INFORMATION
STRT.M        -0.700000  :FIRST INDEX VALUE
STOP.M          390.050  :LAST INDEX VALUE
STEP.M        0.0100000  :STEP
NULL.            -99999  :NULL VALUE
COMP.                    :COMPANY
WELL.                    :WELL
FLD.                     :FIELD
LOC.                     :LOCATION
SRVC.                    :
CTRY.                    :COUNTRY
STAT.                    :STATE
CNTY.                    :
DATE.                    :DATE
API.                     :
#------------------------------------------------------------
~CURVE INFORMATION
DEPT.M                   :DEPTH
BOREHOLE_DIAMETER.INCH   :Borehole Diameter
NATURAL_GAMMA_RAY.API    :Natural Gamma Ray
LONG_NORMAL_RESISTIVITY_64".OHMM   :Long Normal Resistivity 64"
SHORT_NORMAL_RESISTIVITY_16".OHMM   :Short Normal Resistivity 16"
SPR.OHM                  :SPR
SP.MV                    :SP
CONDUCTIVITY.USIE        :Conductivity
TEMPERATURE.°C           :Temperature
#------------------------------------------------------------
~PARAMETER INFORMATION
Abbreviations_. _m.b.g.l. - meters below ground level_m.a.s.l. - meters above sea level_API - American Petroleum Institute Counts_In / " - Inches_DEGC - Degree Celsius_ppm - parts per million (total dissolved solids)_g/cc - grams per cubic centimeter_% - percent porosity_Date Format_ DD/MM/YYYY  :Abbreviations:
CLIENT_.  Suhab Alsahel  :CLIENT:
DateTime#1.  30/03/2024  :DateTime#1
DEPTH_LOGGER_. 390 m.b.g.l.  :DEPTH LOGGER:
DEPTH-TO-WATER_.  filled  :DEPTH-TO-WATER:
DRILLING_DEPTH_. 390 m.b.g.l  :DRILLING DEPTH:
ELEVATION_.    m.a.s.l.  :ELEVATION:
FLUID_IN_HOLE_.     Mud  :FLUID IN HOLE:
Geophysical_Well_Logging_of. K-GEP-1  :Geophysical Well Logging of
LATITUDE_.  N 22.300800  :LATITUDE:
LOGGING_ENGINEERS_.  Eng. Qais  :LOGGING ENGINEERS:
LONGITUDE_. E 39.114322  :LONGITUDE:
TYPE_OF_LOG_. Composite  :TYPE OF LOG:
WITNESSED_BY_.           :WITNESSED BY:
#------------------------------------------------------------
~OTHER
#------------------------------------------------------------
~A
# ...
   184.300
     10.4220    0.139600    -99999.0    -99999.0    -99999.0
    -99999.0     61277.4     38.4960
   184.310
     10.4230    0.139600    -99999.0    -99999.0    -99999.0
    -99999.0     61277.4     38.4960
   184.320
     10.4230    0.139600    -99999.0    -99999.0    -99999.0
    -99999.0     61277.4     38.4960
   184.330
     10.4230    0.139600    -99999.0    -99999.0    -99999.0
    -99999.0     61277.4     38.4970
   184.340
     10.4220     21.0796    -99999.0    -99999.0    -99999.0
    -99999.0     61277.4     38.4970
   184.350
     10.4220     21.0796    -99999.0    -99999.0    -99999.0
    -99999.0     61277.4     38.4980
   184.360
     10.4220     21.0796    -99999.0    -99999.0    -99999.0
    -99999.0     61277.4     38.4980
   184.370
     10.4220     14.0996    -99999.0    -99999.0    -99999.0
    -99999.0     61277.4     38.4980
   184.380
     10.4220     14.0996    -99999.0    -99999.0    -99999.0
    -99999.0     61277.4     38.4980
   184.390
     10.4220     14.0996    -99999.0    -99999.0    -99999.0
    -99999.0     61277.4     38.4980
   184.400
     10.4220    0.139600    -99999.0    -99999.0    -99999.0
    -99999.0     61277.4     38.4980
   184.410
     10.4220    0.139600    -99999.0    -99999.0    -99999.0
    -99999.0     61277.4     38.4990
   184.420
     10.4230    0.139600    -99999.0    -99999.0    -99999.0
    -99999.0     61277.4     38.4990
   184.430
     10.4230    0.139600    -99999.0    -99999.0    -99999.0
    -99999.0     61277.4     38.4990
   184.440
     10.4230    0.139600    -99999.0    -99999.0    -99999.0
    -99999.0     61277.4     38.4980
   184.450
     10.4220    0.139600    -99999.0    -99999.0    -99999.0
    -99999.0     61277.4     38.4980
   184.460
     10.4220    0.139600    -99999.0    -99999.0    -99999.0
    -99999.0     61277.4     38.4980
   184.470
     10.4230    0.139600    -99999.0    -99999.0    -99999.0
    -99999.0     61277.4     38.4950
   184.480
     10.4230     14.0996    -99999.0    -99999.0    -99999.0
    -99999.0     61277.4     38.4950
   184.490
     10.4230     14.0996    -99999.0    -99999.0    -99999.0
    -99999.0     61277.4     38.4950
   184.500
     10.4220     14.0996    -99999.0    -99999.0    -99999.0
    -99999.0     61277.4     38.4960
   184.510
     10.4220     7.11960    -99999.0    -99999.0    -99999.0
    -99999.0     61277.4     38.4960
   184.520
     10.4220     7.11960    -99999.0    -99999.0    -99999.0
    -99999.0     61277.4     38.4960
   184.530
     10.4230     6.78735    -99999.0    -99999.0    -99999.0
    -99999.0     61277.4     38.4940
   184.540
     10.4230     6.78735    -99999.0    -99999.0    -99999.0
    -99999.0     61277.4     38.4940
   184.550
     10.4230     6.78735    -99999.0    -99999.0    -99999.0
    -99999.0     61277.4     38.4940
   184.560
     10.4230    0.139600    -99999.0    -99999.0    -99999.0
    -99999.0     61277.4     38.4990
   184.570
     10.4230    0.139600    -99999.0    -99999.0    -99999.0
    -99999.0     61277.4     38.4990
   184.580
     10.4230    0.139600    -99999.0    -99999.0    -99999.0
    -99999.0     61277.4     38.4990
   184.590
     10.4230    0.139600    -99999.0    -99999.0    -99999.0
    -99999.0     61277.4     38.4940
   184.600
     10.4230    0.139600    -99999.0    -99999.0    -99999.0
    -99999.0     61277.4     38.4940
   184.610
     10.4220    0.139600    -99999.0    -99999.0    -99999.0
    -99999.0     61277.4     38.4970
   184.620
     10.4220     14.0996    -99999.0    -99999.0    -99999.0
    -99999.0     61277.4     38.4970
   184.630
     10.4230     14.0996    -99999.0    -99999.0    -99999.0
    -99999.0     61277.4     38.4970
   184.640
     10.4230     7.11960    -99999.0    -99999.0    -99999.0
    -99999.0     61277.4     38.4970
   184.650
     10.4230     7.11960    -99999.0    -99999.0    -99999.0
    -99999.0     61277.4     38.5010
   184.660
     10.4220     7.11960    -99999.0    -99999.0    -99999.0
    -99999.0     61277.4     38.5010
   184.670
     10.4220    0.139600    -99999.0    -99999.0    -99999.0
    -99999.0     61277.4     38.5010
   184.680
     10.4220    0.139600    -99999.0    -99999.0    -99999.0
    -99999.0     61277.4     38.4990
   184.690
     10.4230    0.139600    -99999.0    -99999.0    -99999.0
    -99999.0     61277.4     38.4990
   184.700
     10.4230    0.139600    -99999.0    -99999.0    -99999.0
    -99999.0     61277.4     38.5000
   184.710
     10.4230    0.139600    -99999.0    -99999.0    -99999.0
    -99999.0     61277.4     38.5000
   184.720
     10.4220     14.0783    -99999.0    -99999.0    -99999.0
    -99999.0     61277.4     38.5000
   184.730
     10.4220     14.0996    -99999.0    -99999.0    -99999.0
    -99999.0     61277.4     38.4980
   184.740
     10.4220     14.0996    -99999.0    -99999.0    -99999.0
    -99999.0     61277.4     38.4980
   184.750
     10.4220     14.0996    -99999.0    -99999.0    -99999.0
    -99999.0     61277.4     38.4980
   184.760
     10.4220     14.0996    -99999.0    -99999.0    -99999.0
    -99999.0     61277.4     38.4980
   184.770
     10.4230     14.0996    -99999.0    -99999.0    -99999.0
    -99999.0     61277.4     38.4980
   184.780
     10.4230     7.11960    -99999.0    -99999.0    -99999.0
    -99999.0     61277.4     38.4980
   184.790
     10.4230     7.11960    -99999.0    -99999.0    -99999.0
    -99999.0     61277.4     38.4980
   184.800
     10.4220     14.0890    -99999.0    -99999.0    -99999.0
    -99999.0     61277.4     38.4980
   184.810
     10.4220     14.0996    -99999.0    -99999.0    -99999.0
    -99999.0     61277.4     38.4980
   184.820
     10.4220     14.0996    -99999.0    -99999.0    -99999.0
    -99999.0     61277.4     38.4960
   184.830
     10.4220    0.160913    -99999.0    -99999.0    -99999.0
    -99999.0     61277.4     38.4960
   184.840
     10.4220    0.139600    -99999.0    -99999.0    -99999.0
    -99999.0     61277.4     38.4960
   184.850
     10.4220    0.139600    -99999.0    -99999.0    -99999.0
    -99999.0     61277.4     38.5000
   184.860
     10.4220     7.10894    -99999.0    -99999.0    -99999.0
    -99999.0     61277.4     38.5000
   184.870
     10.4220     7.11960    -99999.0    -99999.0    -99999.0
    -99999.0     61277.4     38.5000
   184.880
     10.4230    0.150240    -99999.0    -99999.0    -99999.0
    -99999.0     61277.4     38.5010
   184.890
     10.4230    0.139600    -99999.0    -99999.0    -99999.0
    -99999.0     61277.4     38.5010
   184.900
     10.4230    0.139600    -99999.0    -99999.0    -99999.0
    -99999.0     61277.4     38.5010
   184.910
     10.4220    0.139600    -99999.0    -99999.0    -99999.0
    -99999.0     61277.4     38.4960
   184.920
     10.4220    0.139600    -99999.0    -99999.0    -99999.0
    -99999.0     61277.4     38.4960
   184.930
     10.4230    0.139600    -99999.0    -99999.0    -99999.0
    -99999.0     61277.4     38.4960
   184.940
     10.4230    0.139600    -99999.0    -99999.0    -99999.0
    -99999.0     61277.4     38.4990
   184.950
     10.4230    0.139600    -99999.0    -99999.0    -99999.0
    -99999.0     61277.4     38.4990
   184.960
     10.4230    0.139600    -99999.0    -99999.0    -99999.0
    -99999.0     61277.4     38.4990
   184.970
     10.4230    0.139600    -99999.0    -99999.0    -99999.0
    -99999.0     61277.4     38.4970
   184.980
     10.4230    0.139600    -99999.0    -99999.0    -99999.0
    -99999.0     61277.4     38.4970
   184.990
     10.4220    0.139600    -99999.0    -99999.0    -99999.0
    -99999.0     61277.4     38.4970
   185.000
     10.4220    0.139600    -99999.0    -99999.0    -99999.0
    -99999.0     61277.4     38.4960
   185.010
     10.4230    0.139600    -99999.0    -99999.0    -99999.0
    -99999.0     61277.4     38.4960
   185.020
     10.4230     21.0477    -99999.0    -99999.0    -99999.0
    -99999.0     61277.4     38.4960
   185.030
     10.4230     21.0796    -99999.0    -99999.0    -99999.0
    -99999.0     61277.4     38.4980
