#------------------------------------------------------------
~VERSION INFORMATION
VERS.               2.0  :CWLS LOG ASCII STANDARD - VERSION 2.0
WRAP.               YES  :MULTIPLE LINES PER DEPTH STEP
#------------------------------------------------------------
~WELL INFORMATION
STRT.M        -0.700000  :FIRST INDEX VALUE
STOP.M          390.050  :LAST INDEX VALUE
STEP.M        0.0100000  :STEP
NULL.            -99999  :NULL VALUE
COMP.                    :COMPANY
WELL.                    :WELL
FLD.                     :FIELD
LOC.                     :LOCATION
SRVC.                    :
CTRY.                    :COUNTRY
STAT.                    :STATE
CNTY.                    :
DATE.                    :DATE
API.                     :
#------------------------------------------------------------
~CURVE INFORMATION
DEPT.M                   :DEPTH
BOREHOLE_DIAMETER.INCH   :Borehole Diameter
NATURAL_GAMMA_RAY.API    :Natural Gamma Ray
LONG_NORMAL_RESISTIVITY_64".OHMM   :Long Normal Resistivity 64"
SHORT_NORMAL_RESISTIVITY_16".OHMM   :Short Normal Resistivity 16"
SPR.OHM                  :SPR
SP.MV                    :SP
CONDUCTIVITY.USIE        :Conductivity
TEMPERATURE.°C           :Temperature
#------------------------------------------------------------
~PARAMETER INFORMATION
Abbreviations_. _m.b.g.l. - meters below ground level_m.a.s.l. - meters above sea level_API - American Petroleum Institute Counts_In / " - Inches_DEGC - Degree Celsius_ppm - parts per million (total dissolved solids)_g/cc - grams per cubic centimeter_% - percent porosity_Date Format_ DD/MM/YYYY  :Abbreviations:
CLIENT_.  Suhab Alsahel  :CLIENT:
DateTime#1.  30/03/2024  :DateTime#1
DEPTH_LOGGER_. 390 m.b.g.l.  :DEPTH LOGGER:
DEPTH-TO-WATER_.  filled  :DEPTH-TO-WATER:
DRILLING_DEPTH_. 390 m.b.g.l  :DRILLING DEPTH:
ELEVATION_.    m.a.s.l.  :ELEVATION:
FLUID_IN_HOLE_.     Mud  :FLUID IN HOLE:
Geophysical_Well_Logging_of. K-GEP-1  :Geophysical Well Logging of
LATITUDE_.  N 22.300800  :LATITUDE:
LOGGING_ENGINEERS_.  Eng. Qais  :LOGGING ENGINEERS:
LONGITUDE_. E 39.114322  :LONGITUDE:
TYPE_OF_LOG_. Composite  :TYPE OF LOG:
WITNESSED_BY_.           :WITNESSED BY:
#------------------------------------------------------------
~OTHER
#------------------------------------------------------------
~A
# ...
   58.5000
     10.4310     14.0996    -99999.0    -99999.0    -99999.0
    -99999.0     61277.4     36.0110
   58.5100
     10.4320    0.139600    -99999.0    -99999.0    -99999.0
    -99999.0     61277.4     36.0110
   58.5200
     10.4320    0.139600    -99999.0    -99999.0    -99999.0
    -99999.0     61277.4     36.0110
   58.5300
     10.4320    0.139600    -99999.0    -99999.0    -99999.0
    -99999.0     61277.4     36.0110
   58.5400
     10.4310     7.11960    -99999.0    -99999.0    -99999.0
    -99999.0     61277.4     36.0110
   58.5500
     10.4310     7.11960    -99999.0    -99999.0    -99999.0
    -99999.0     61277.4     36.0090
   58.5600
     10.4310     7.11960    -99999.0    -99999.0    -99999.0
    -99999.0     61277.4     36.0090
   58.5700
     10.4310    0.139600    -99999.0    -99999.0    -99999.0
    -99999.0     61277.4     36.0090
   58.5800
     10.4310    0.139600    -99999.0    -99999.0    -99999.0
    -99999.0     61277.4     36.0010
   58.5900
     10.4310    0.139600    -99999.0    -99999.0    -99999.0
    -99999.0     61277.4     36.0010
   58.6000
     10.4310    0.139600    -99999.0    -99999.0    -99999.0
    -99999.0     61277.4     36.0010
   58.6100
     10.4310     7.10895    -99999.0    -99999.0    -99999.0
    -99999.0     61277.4     36.0010
   58.6200
     10.4310     7.11960    -99999.0    -99999.0    -99999.0
    -99999.0     61277.4     36.0010
   58.6300
     10.4310     7.11960    -99999.0    -99999.0    -99999.0
    -99999.0     61277.4     36.0010
   58.6400
     10.4310     28.0276    -99999.0    -99999.0    -99999.0
    -99999.0     61277.4     36.0010
   58.6500
     10.4310     28.0596    -99999.0    -99999.0    -99999.0
    -99999.0     61277.4     36.0000
   58.6600
     10.4310     28.0596    -99999.0    -99999.0    -99999.0
    -99999.0     61277.4     36.0000
   58.6700
     10.4310     14.1209    -99999.0    -99999.0    -99999.0
    -99999.0     61277.4     36.0000
   58.6800
     10.4310     14.0996    -99999.0    -99999.0    -99999.0
    -99999.0     61277.4     35.9950
   58.6900
     10.4310     14.0996    -99999.0    -99999.0    -99999.0
    -99999.0     61277.4     35.9950
   58.7000
     10.4310     6.80130    -99999.0    -99999.0    -99999.0
    -99999.0     61277.4     35.9950
   58.7100
     10.4320     6.78735    -99999.0    -99999.0    -99999.0
    -99999.0     61277.4     35.9950
   58.7200
     10.4320     6.78735    -99999.0    -99999.0    -99999.0
    -99999.0     61277.4     35.9970
   58.7300
     10.4320     6.78735    -99999.0    -99999.0    -99999.0
    -99999.0     61277.4     35.9970
   58.7400
     10.4310     7.11922    -99999.0    -99999.0    -99999.0
    -99999.0     61277.4     35.9970
   58.7500
     10.4310     7.11960    -99999.0    -99999.0    -99999.0
    -99999.0     61277.4     35.9910
   58.7600
     10.4310     7.11960    -99999.0    -99999.0    -99999.0
    -99999.0     61277.4     35.9910
   58.7700
     10.4310     14.0916    -99999.0    -99999.0    -99999.0
    -99999.0     61277.4     35.9910
   58.7800
     10.4310     14.0996    -99999.0    -99999.0    -99999.0
    -99999.0     61277.4     35.9870
   58.7900
     10.4310     14.0996    -99999.0    -99999.0    -99999.0
    -99999.0     61277.4     35.9870
   58.8000
     10.4310     14.0996    -99999.0    -99999.0    -99999.0
    -99999.0     61277.4     35.9870
   58.8100
     10.4310     14.0996    -99999.0    -99999.0    -99999.0
    -99999.0     61277.4     35.9870
   58.8200
     10.4310     14.0996    -99999.0    -99999.0    -99999.0
    -99999.0     61277.4     35.9870
   58.8300
     10.4310     14.0996    -99999.0    -99999.0    -99999.0
    -99999.0     61277.4     35.9870
   58.8400
     10.4310     42.0089    -99999.0    -99999.0    -99999.0
    -99999.0     61277.4     35.9870
   58.8500
     10.4310     42.0196    -99999.0    -99999.0    -99999.0
    -99999.0     61277.4     35.9840
   58.8600
     10.4310     42.0196    -99999.0    -99999.0    -99999.0
    -99999.0     61277.4     35.9840
   58.8700
     10.4310     14.1103    -99999.0    -99999.0    -99999.0
    -99999.0     61277.4     35.9840
   58.8800
     10.4310     14.0996    -99999.0    -99999.0    -99999.0
    -99999.0     61277.4     35.9770
   58.8900
     10.4310     14.0996    -99999.0    -99999.0    -99999.0
    -99999.0     61277.4     35.9770
   58.9000
     10.4310     14.0996    -99999.0    -99999.0    -99999.0
    -99999.0     61277.4     35.9770
   58.9100
     10.4310     14.0996    -99999.0    -99999.0    -99999.0
    -99999.0     61277.4     35.9770
   58.9200
     10.4310     14.0996    -99999.0    -99999.0    -99999.0
    -99999.0     61277.4     35.9780
   58.9300
     10.4310     14.0996    -99999.0    -99999.0    -99999.0
    -99999.0     61277.4     35.9780
   58.9400
     10.4310     21.0796    -99999.0    -99999.0    -99999.0
    -99999.0     61277.4     35.9780
   58.9500
     10.4310     21.0796    -99999.0    -99999.0    -99999.0
    -99999.0     61277.4     35.9790
   58.9600
     10.4310     21.0796    -99999.0    -99999.0    -99999.0
    -99999.0     61277.4     35.9790
   58.9700
     10.4310     14.0996    -99999.0    -99999.0    -99999.0
    -99999.0     61277.4     35.9790
   58.9800
     10.4310     14.0996    -99999.0    -99999.0    -99999.0
    -99999.0     61277.4     35.9740
   58.9900
     10.4310     14.0996    -99999.0    -99999.0    -99999.0
    -99999.0     61277.4     35.9740
   59.0000
     10.4310    0.139600    -99999.0    -99999.0    -99999.0
    -99999.0     61277.4     35.9740
   59.0100
     10.4310    0.139600    -99999.0    -99999.0    -99999.0
    -99999.0     61277.4     35.9700
   59.0200
     10.4310    0.139600    -99999.0    -99999.0    -99999.0
    -99999.0     61277.4     35.9700
   59.0300
     10.4310    0.139600    -99999.0    -99999.0    -99999.0
    -99999.0     61277.4     35.9700
   59.0400
     10.4310     14.0996    -99999.0    -99999.0    -99999.0
    -99999.0     61277.4     35.9700
   59.0500
     10.4310     14.0996    -99999.0    -99999.0    -99999.0
    -99999.0     61277.4     35.9670
   59.0600
     10.4310     14.0996    -99999.0    -99999.0    -99999.0
    -99999.0     61277.4     35.9670
   59.0700
     10.4310     21.0796    -99999.0    -99999.0    -99999.0
    -99999.0     61277.4     35.9670
   59.0800
     10.4310     21.0796    -99999.0    -99999.0    -99999.0
    -99999.0     61277.4     35.9660
   59.0900
     10.4310     21.0796    -99999.0    -99999.0    -99999.0
    -99999.0     61277.4     35.9660
   59.1000
     10.4310     7.11960    -99999.0    -99999.0    -99999.0
    -99999.0     61277.4     35.9660
   59.1100
     10.4310     7.11960    -99999.0    -99999.0    -99999.0
    -99999.0     61277.4     35.9660
   59.1200
     10.4310     7.11960    -99999.0    -99999.0    -99999.0
    -99999.0     61277.4     35.9660
   59.1300
     10.4310     7.11960    -99999.0    -99999.0    -99999.0
    -99999.0     61277.4     35.9660
   59.1400
     10.4310     14.0889    -99999.0    -99999.0    -99999.0
    -99999.0     61277.4     35.9660
   59.1500
     10.4310     14.0996    -99999.0    -99999.0    -99999.0
    -99999.0     61277.4     35.9630
   59.1600
     10.4310     14.0996    -99999.0    -99999.0    -99999.0
    -99999.0     61277.4     35.9630
   59.1700
     10.4310     7.13025    -99999.0    -99999.0    -99999.0
    -99999.0     61277.4     35.9630
   59.1800
     10.4310     7.11960    -99999.0    -99999.0    -99999.0
    -99999.0     61277.4     35.9590
   59.1900
     10.4310     7.11960    -99999.0    -99999.0    -99999.0
    -99999.0     61277.4     35.9590
   59.2000
     10.4310     14.0863    -99999.0    -99999.0    -99999.0
    -99999.0     61277.4     35.9590
   59.2100
     10.4310     14.0996    -99999.0    -99999.0    -99999.0
    -99999.0     61277.4     35.9590
   59.2200
     10.4310     14.0996    -99999.0    -99999.0    -99999.0
    -99999.0     61277.4     35.9560
   59.2300
     10.4310     34.9997    -99999.0    -99999.0    -99999.0
    -99999.0     61277.4     35.9560
