#------------------------------------------------------------
~VERSION INFORMATION
VERS.               2.0  :CWLS LOG ASCII STANDARD - VERSION 2.0
WRAP.               YES  :MULTIPLE LINES PER DEPTH STEP
#------------------------------------------------------------
~WELL INFORMATION
STRT.M        -0.700000  :FIRST INDEX VALUE
STOP.M          390.050  :LAST INDEX VALUE
STEP.M        0.0100000  :STEP
NULL.            -99999  :NULL VALUE
COMP.                    :COMPANY
WELL.                    :WELL
FLD.                     :FIELD
LOC.                     :LOCATION
SRVC.                    :
CTRY.                    :COUNTRY
STAT.                    :STATE
CNTY.                    :
DATE.                    :DATE
API.                     :
#------------------------------------------------------------
~CURVE INFORMATION
DEPT.M                   :DEPTH
BOREHOLE_DIAMETER.INCH   :Borehole Diameter
NATURAL_GAMMA_RAY.API    :Natural Gamma Ray
LONG_NORMAL_RESISTIVITY_64".OHMM   :Long Normal Resistivity 64"
SHORT_NORMAL_RESISTIVITY_16".OHMM   :Short Normal Resistivity 16"
SPR.OHM                  :SPR
SP.MV                    :SP
CONDUCTIVITY.USIE        :Conductivity
TEMPERATURE.°C           :Temperature
#------------------------------------------------------------
~PARAMETER INFORMATION
Abbreviations_. _m.b.g.l. - meters below ground level_m.a.s.l. - meters above sea level_API - American Petroleum Institute Counts_In / " - Inches_DEGC - Degree Celsius_ppm - parts per million (total dissolved solids)_g/cc - grams per cubic centimeter_% - percent porosity_Date Format_ DD/MM/YYYY  :Abbreviations:
CLIENT_.  Suhab Alsahel  :CLIENT:
DateTime#1.  30/03/2024  :DateTime#1
DEPTH_LOGGER_. 390 m.b.g.l.  :DEPTH LOGGER:
DEPTH-TO-WATER_.  filled  :DEPTH-TO-WATER:
DRILLING_DEPTH_. 390 m.b.g.l  :DRILLING DEPTH:
ELEVATION_.    m.a.s.l.  :ELEVATION:
FLUID_IN_HOLE_.     Mud  :FLUID IN HOLE:
Geophysical_Well_Logging_of. K-GEP-1  :Geophysical Well Logging of
LATITUDE_.  N 22.300800  :LATITUDE:
LOGGING_ENGINEERS_.  Eng. Qais  :LOGGING ENGINEERS:
LONGITUDE_. E 39.114322  :LONGITUDE:
TYPE_OF_LOG_. Composite  :TYPE OF LOG:
WITNESSED_BY_.           :WITNESSED BY:
#------------------------------------------------------------
~OTHER
#------------------------------------------------------------
~A
# ...
   159.140
     10.4330     21.0796    -99999.0    -99999.0    -99999.0
    -99999.0     61277.4     37.9040
   159.150
     10.4330     21.0796    -99999.0    -99999.0    -99999.0
    -99999.0     61277.4     37.9040
   159.160
     10.4320    0.171520    -99999.0    -99999.0    -99999.0
    -99999.0     61277.4     37.9040
   159.170
     10.4320    0.139600    -99999.0    -99999.0    -99999.0
    -99999.0     61277.4     37.9000
   159.180
     10.4320    0.139600    -99999.0    -99999.0    -99999.0
    -99999.0     61277.4     37.9000
   159.190
     10.4330    0.139600    -99999.0    -99999.0    -99999.0
    -99999.0     61277.4     37.9000
   159.200
     10.4330    0.139600    -99999.0    -99999.0    -99999.0
    -99999.0     61277.4     37.9050
   159.210
     10.4330    0.139600    -99999.0    -99999.0    -99999.0
    -99999.0     61277.4     37.9050
   159.220
     10.4330    0.139600    -99999.0    -99999.0    -99999.0
    -99999.0     61277.4     37.9050
   159.230
     10.4330    0.139600    -99999.0    -99999.0    -99999.0
    -99999.0     61277.4     37.9020
   159.240
     10.4330    0.139600    -99999.0    -99999.0    -99999.0
    -99999.0     61277.4     37.9020
   159.250
     10.4330     7.11960    -99999.0    -99999.0    -99999.0
    -99999.0     61277.4     37.9020
   159.260
     10.4330     7.11960    -99999.0    -99999.0    -99999.0
    -99999.0     61277.4     37.9030
   159.270
     10.4330     7.11960    -99999.0    -99999.0    -99999.0
    -99999.0     61277.4     37.9030
   159.280
     10.4330     7.11960    -99999.0    -99999.0    -99999.0
    -99999.0     61277.4     37.9030
   159.290
     10.4330     14.0996    -99999.0    -99999.0    -99999.0
    -99999.0     61277.4     37.9030
   159.300
     10.4330     14.0996    -99999.0    -99999.0    -99999.0
    -99999.0     61277.4     37.9030
   159.310
     10.4330     14.0996    -99999.0    -99999.0    -99999.0
    -99999.0     61277.4     37.9030
   159.320
     10.4330     7.13024    -99999.0    -99999.0    -99999.0
    -99999.0     61277.4     37.9030
   159.330
     10.4330     7.11960    -99999.0    -99999.0    -99999.0
    -99999.0     61277.4     37.9030
   159.340
     10.4330     7.11960    -99999.0    -99999.0    -99999.0
    -99999.0     61277.4     37.9030
   159.350
     10.4330     7.11960    -99999.0    -99999.0    -99999.0
    -99999.0     61277.4     37.9030
   159.360
     10.4330     7.11960    -99999.0    -99999.0    -99999.0
    -99999.0     61277.4     37.9030
   159.370
     10.4330     7.11960    -99999.0    -99999.0    -99999.0
    -99999.0     61277.4     37.9030
   159.380
     10.4330     21.0583    -99999.0    -99999.0    -99999.0
    -99999.0     61277.4     37.9030
   159.390
     10.4330     21.0796    -99999.0    -99999.0    -99999.0
    -99999.0     61277.4     37.9070
   159.400
     10.4330     21.0796    -99999.0    -99999.0    -99999.0
    -99999.0     61277.4     37.9070
   159.410
     10.4330     21.0796    -99999.0    -99999.0    -99999.0
    -99999.0     61277.4     37.9070
   159.420
     10.4330    0.139600    -99999.0    -99999.0    -99999.0
    -99999.0     61277.4     37.9050
   159.430
     10.4330    0.139600    -99999.0    -99999.0    -99999.0
    -99999.0     61277.4     37.9050
   159.440
     10.4330    0.139600    -99999.0    -99999.0    -99999.0
    -99999.0     61277.4     37.9050
   159.450
     10.4330     14.0996    -99999.0    -99999.0    -99999.0
    -99999.0     61277.4     37.9050
   159.460
     10.4330     14.0996    -99999.0    -99999.0    -99999.0
    -99999.0     61277.4     37.9050
   159.470
     10.4330     14.0996    -99999.0    -99999.0    -99999.0
    -99999.0     61277.4     37.9050
   159.480
     10.4330    0.139600    -99999.0    -99999.0    -99999.0
    -99999.0     61277.4     37.9050
   159.490
     10.4330    0.139600    -99999.0    -99999.0    -99999.0
    -99999.0     61277.4     37.9060
   159.500
     10.4330    0.139600    -99999.0    -99999.0    -99999.0
    -99999.0     61277.4     37.9060
   159.510
     10.4330    0.139600    -99999.0    -99999.0    -99999.0
    -99999.0     61277.4     37.9060
   159.520
     10.4330     14.0783    -99999.0    -99999.0    -99999.0
    -99999.0     61277.4     37.9030
   159.530
     10.4330     14.0996    -99999.0    -99999.0    -99999.0
    -99999.0     61277.4     37.9030
   159.540
     10.4330     14.0996    -99999.0    -99999.0    -99999.0
    -99999.0     61277.4     37.9030
   159.550
     10.4330     7.13024    -99999.0    -99999.0    -99999.0
    -99999.0     61277.4     37.9050
   159.560
     10.4330     7.11960    -99999.0    -99999.0    -99999.0
    -99999.0     61277.4     37.9050
   159.570
     10.4330     7.11960    -99999.0    -99999.0    -99999.0
    -99999.0     61277.4     37.9050
   159.580
     10.4330     14.0889    -99999.0    -99999.0    -99999.0
    -99999.0     61277.4     37.9070
   159.590
     10.4330     14.0996    -99999.0    -99999.0    -99999.0
    -99999.0     61277.4     37.9070
   159.600
     10.4330     14.0996    -99999.0    -99999.0    -99999.0
    -99999.0     61277.4     37.9070
   159.610
     10.4330     14.0996    -99999.0    -99999.0    -99999.0
    -99999.0     61277.4     37.9070
   159.620
     10.4330     7.11960    -99999.0    -99999.0    -99999.0
    -99999.0     61277.4     37.9080
   159.630
     10.4330     7.11960    -99999.0    -99999.0    -99999.0
    -99999.0     61277.4     37.9080
   159.640
     10.4330     7.11960    -99999.0    -99999.0    -99999.0
    -99999.0     61277.4     37.9080
   159.650
     10.4330     21.0796    -99999.0    -99999.0    -99999.0
    -99999.0     61277.4     37.9060
   159.660
     10.4330     21.0796    -99999.0    -99999.0    -99999.0
    -99999.0     61277.4     37.9060
   159.670
     10.4330     21.0796    -99999.0    -99999.0    -99999.0
    -99999.0     61277.4     37.9060
   159.680
     10.4330     7.11960    -99999.0    -99999.0    -99999.0
    -99999.0     61277.4     37.9060
   159.690
     10.4330     7.11960    -99999.0    -99999.0    -99999.0
    -99999.0     61277.4     37.9060
   159.700
     10.4330     7.11960    -99999.0    -99999.0    -99999.0
    -99999.0     61277.4     37.9060
   159.710
     10.4330    0.150240    -99999.0    -99999.0    -99999.0
    -99999.0     61277.4     37.9070
   159.720
     10.4330    0.139600    -99999.0    -99999.0    -99999.0
    -99999.0     61277.4     37.9070
   159.730
     10.4330    0.139600    -99999.0    -99999.0    -99999.0
    -99999.0     61277.4     37.9070
   159.740
     10.4330    0.139600    -99999.0    -99999.0    -99999.0
    -99999.0     61277.4     37.9100
   159.750
     10.4330    0.139600    -99999.0    -99999.0    -99999.0
    -99999.0     61277.4     37.9100
   159.760
     10.4330    0.139600    -99999.0    -99999.0    -99999.0
    -99999.0     61277.4     37.9100
   159.770
     10.4330    0.139600    -99999.0    -99999.0    -99999.0
    -99999.0     61277.4     37.9090
   159.780
     10.4330    0.139600    -99999.0    -99999.0    -99999.0
    -99999.0     61277.4     37.9090
   159.790
     10.4330    0.139600    -99999.0    -99999.0    -99999.0
    -99999.0     61277.4     37.9090
   159.800
     10.4330    0.139600    -99999.0    -99999.0    -99999.0
    -99999.0     61277.4     37.9090
   159.810
     10.4330    0.139600    -99999.0    -99999.0    -99999.0
    -99999.0     61277.4     37.9090
   159.820
     10.4330    0.139600    -99999.0    -99999.0    -99999.0
    -99999.0     61277.4     37.9090
   159.830
     10.4330    0.139600    -99999.0    -99999.0    -99999.0
    -99999.0     61277.4     37.9090
   159.840
     10.4330    0.139600    -99999.0    -99999.0    -99999.0
    -99999.0     61277.4     37.9060
   159.850
     10.4330    0.139600    -99999.0    -99999.0    -99999.0
    -99999.0     61277.4     37.9060
   159.860
     10.4330    0.139600    -99999.0    -99999.0    -99999.0
    -99999.0     61277.4     37.9060
   159.870
     10.4330     7.11960    -99999.0    -99999.0    -99999.0
    -99999.0     61277.4     37.9140
