#------------------------------------------------------------
~VERSION INFORMATION
VERS.               2.0  :CWLS LOG ASCII STANDARD - VERSION 2.0
WRAP.               YES  :MULTIPLE LINES PER DEPTH STEP
#------------------------------------------------------------
~WELL INFORMATION
STRT.M        -0.700000  :FIRST INDEX VALUE
STOP.M          390.050  :LAST INDEX VALUE
STEP.M        0.0100000  :STEP
NULL.            -99999  :NULL VALUE
COMP.                    :COMPANY
WELL.                    :WELL
FLD.                     :FIELD
LOC.                     :LOCATION
SRVC.                    :
CTRY.                    :COUNTRY
STAT.                    :STATE
CNTY.                    :
DATE.                    :DATE
API.                     :
#------------------------------------------------------------
~CURVE INFORMATION
DEPT.M                   :DEPTH
BOREHOLE_DIAMETER.INCH   :Borehole Diameter
NATURAL_GAMMA_RAY.API    :Natural Gamma Ray
LONG_NORMAL_RESISTIVITY_64".OHMM   :Long Normal Resistivity 64"
SHORT_NORMAL_RESISTIVITY_16".OHMM   :Short Normal Resistivity 16"
SPR.OHM                  :SPR
SP.MV                    :SP
CONDUCTIVITY.USIE        :Conductivity
TEMPERATURE.°C           :Temperature
#------------------------------------------------------------
~PARAMETER INFORMATION
Abbreviations_. _m.b.g.l. - meters below ground level_m.a.s.l. - meters above sea level_API - American Petroleum Institute Counts_In / " - Inches_DEGC - Degree Celsius_ppm - parts per million (total dissolved solids)_g/cc - grams per cubic centimeter_% - percent porosity_Date Format_ DD/MM/YYYY  :Abbreviations:
CLIENT_.  Suhab Alsahel  :CLIENT:
DateTime#1.  30/03/2024  :DateTime#1
DEPTH_LOGGER_. 390 m.b.g.l.  :DEPTH LOGGER:
DEPTH-TO-WATER_.  filled  :DEPTH-TO-WATER:
DRILLING_DEPTH_. 390 m.b.g.l  :DRILLING DEPTH:
ELEVATION_.    m.a.s.l.  :ELEVATION:
FLUID_IN_HOLE_.     Mud  :FLUID IN HOLE:
Geophysical_Well_Logging_of. K-GEP-1  :Geophysical Well Logging of
LATITUDE_.  N 22.300800  :LATITUDE:
LOGGING_ENGINEERS_.  Eng. Qais  :LOGGING ENGINEERS:
LONGITUDE_. E 39.114322  :LONGITUDE:
TYPE_OF_LOG_. Composite  :TYPE OF LOG:
WITNESSED_BY_.           :WITNESSED BY:
#------------------------------------------------------------
~OTHER
#------------------------------------------------------------
~A
# ...
   8.18000
     10.4320     7.11960    -99999.0    -99999.0    -99999.0
    -99999.0     828.249     30.8330
   8.19000
     10.4320     21.0796    -99999.0    -99999.0    -99999.0
    -99999.0     831.002     30.8260
   8.20000
     10.4320     21.0796    -99999.0    -99999.0    -99999.0
    -99999.0     827.319     30.8210
   8.21000
     10.4320     21.0616    -99999.0    -99999.0    -99999.0
    -99999.0     828.217     30.8210
   8.22000
     10.4320    0.139600    -99999.0    -99999.0    -99999.0
    -99999.0     827.311     30.8110
   8.23000
     10.4320    0.139600    -99999.0    -99999.0    -99999.0
    -99999.0     829.124     30.8080
   8.24000
     10.4320    0.139600    -99999.0    -99999.0    -99999.0
    -99999.0     829.127     30.8030
   8.25000
     10.4320    0.139600    -99999.0    -99999.0    -99999.0
    -99999.0     829.127     30.8010
   8.26000
     10.4320     21.0596    -99999.0    -99999.0    -99999.0
    -99999.0     827.256     30.8010
   8.27000
     10.4320     21.0796    -99999.0    -99999.0    -99999.0
    -99999.0     829.121     30.7940
   8.28000
     10.4320     21.0796    -99999.0    -99999.0    -99999.0
    -99999.0     825.436     30.7920
   8.29000
     10.4320     7.13157    -99999.0    -99999.0    -99999.0
    -99999.0     827.250     30.7880
   8.30000
     10.4320     7.11960    -99999.0    -99999.0    -99999.0
    -99999.0     827.254     30.7880
   8.31000
     10.4320     7.11960    -99999.0    -99999.0    -99999.0
    -99999.0     829.126     30.7820
   8.32000
     10.4320    0.139600    -99999.0    -99999.0    -99999.0
    -99999.0     827.311     30.7760
   8.33000
     10.4320    0.139600    -99999.0    -99999.0    -99999.0
    -99999.0     829.125     30.7760
   8.34000
     10.4320    0.139600    -99999.0    -99999.0    -99999.0
    -99999.0     829.127     30.7690
   8.35000
     10.4320    0.139600    -99999.0    -99999.0    -99999.0
    -99999.0     825.436     30.7620
   8.36000
     10.4320     14.0797    -99999.0    -99999.0    -99999.0
    -99999.0     827.311     30.7620
   8.37000
     10.4320     14.0996    -99999.0    -99999.0    -99999.0
    -99999.0     829.185     30.7580
   8.38000
     10.4320     14.0996    -99999.0    -99999.0    -99999.0
    -99999.0     829.127     30.7520
   8.39000
     10.4320     7.13090    -99999.0    -99999.0    -99999.0
    -99999.0     829.127     30.7520
   8.40000
     10.4310     7.11960    -99999.0    -99999.0    -99999.0
    -99999.0     829.127     30.7500
   8.41000
     10.4310     7.11960    -99999.0    -99999.0    -99999.0
    -99999.0     831.002     30.7540
   8.42000
     10.4310     7.13156    -99999.0    -99999.0    -99999.0
    -99999.0     829.130     30.7540
   8.43000
     10.4320     14.0943    -99999.0    -99999.0    -99999.0
    -99999.0     829.127     30.7700
   8.44000
     10.4320     14.0996    -99999.0    -99999.0    -99999.0
    -99999.0     827.311     30.7700
   8.45000
     10.4320     14.0996    -99999.0    -99999.0    -99999.0
    -99999.0     829.124     30.7880
   8.46000
     10.4320     14.0996    -99999.0    -99999.0    -99999.0
    -99999.0     829.125     30.8080
   8.47000
     10.4320     14.0996    -99999.0    -99999.0    -99999.0
    -99999.0     827.311     30.8080
   8.48000
     10.4320     14.0996    -99999.0    -99999.0    -99999.0
    -99999.0     829.124     30.8389
   8.49000
     10.4320     14.0996    -99999.0    -99999.0    -99999.0
    -99999.0     829.125     30.8390
   8.50000
     10.4320     14.0996    -99999.0    -99999.0    -99999.0
    -99999.0     827.252     30.8570
   8.51000
     10.4320     14.0996    -99999.0    -99999.0    -99999.0
    -99999.0     829.125     30.8710
   8.52000
     10.4310     14.0850    -99999.0    -99999.0    -99999.0
    -99999.0     829.127     30.8710
   8.53000
     10.4310    0.140931    -99999.0    -99999.0    -99999.0
    -99999.0     829.127     30.8830
   8.54000
     10.4310    0.139601    -99999.0    -99999.0    -99999.0
    -99999.0     829.127     30.8830
   8.55000
     10.4310    0.139600    -99999.0    -99999.0    -99999.0
    -99999.0     829.129     30.8910
   8.56000
     10.4310    0.139600    -99999.0    -99999.0    -99999.0
    -99999.0     831.001     30.8930
   8.57000
     10.4310    0.139600    -99999.0    -99999.0    -99999.0
    -99999.0     831.002     30.8930
   8.58000
     10.4310    0.139600    -99999.0    -99999.0    -99999.0
    -99999.0     827.316     30.8910
   8.59000
     10.4310    0.139600    -99999.0    -99999.0    -99999.0
    -99999.0     827.311     30.8910
   8.60000
     10.4310     7.11960    -99999.0    -99999.0    -99999.0
    -99999.0     827.311     30.8910
   8.61000
     10.4320     7.11960    -99999.0    -99999.0    -99999.0
    -99999.0     827.311     30.8840
   8.62000
     10.4320     7.11960    -99999.0    -99999.0    -99999.0
    -99999.0     827.311     30.8840
   8.63000
     10.4320    0.139600    -99999.0    -99999.0    -99999.0
    -99999.0     827.311     30.8840
   8.64000
     10.4320    0.139600    -99999.0    -99999.0    -99999.0
    -99999.0     829.124     30.8840
   8.65000
     10.4320    0.139600    -99999.0    -99999.0    -99999.0
    -99999.0     829.127     30.8760
   8.66000
     10.4320    0.139600    -99999.0    -99999.0    -99999.0
    -99999.0     827.252     30.8670
   8.67000
     10.4320    0.139600    -99999.0    -99999.0    -99999.0
    -99999.0     827.252     30.8670
   8.68000
     10.4320    0.139600    -99999.0    -99999.0    -99999.0
    -99999.0     827.311     30.8610
   8.69000
     10.4320    0.139600    -99999.0    -99999.0    -99999.0
    -99999.0     827.311     30.8560
   8.70000
     10.4320    0.139600    -99999.0    -99999.0    -99999.0
    -99999.0     827.311     30.8560
   8.71000
     10.4320    0.139600    -99999.0    -99999.0    -99999.0
    -99999.0     827.252     30.8520
   8.72000
     10.4320    0.139600    -99999.0    -99999.0    -99999.0
    -99999.0     827.252     30.8520
   8.73000
     10.4320    0.139600    -99999.0    -99999.0    -99999.0
    -99999.0     827.256     30.8500
   8.74000
     10.4320    0.139600    -99999.0    -99999.0    -99999.0
    -99999.0     829.125     30.8500
   8.75000
     10.4320    0.139600    -99999.0    -99999.0    -99999.0
    -99999.0     829.127     30.8500
   8.76000
     10.4320    0.139600    -99999.0    -99999.0    -99999.0
    -99999.0     827.313     30.8510
   8.77000
     10.4320    0.139600    -99999.0    -99999.0    -99999.0
    -99999.0     827.313     30.8510
   8.78000
     10.4320    0.139600    -99999.0    -99999.0    -99999.0
    -99999.0     829.127     30.8550
   8.79000
     10.4320    0.139600    -99999.0    -99999.0    -99999.0
    -99999.0     827.252     30.8640
   8.80000
     10.4320     7.11096    -99999.0    -99999.0    -99999.0
    -99999.0     827.254     30.8640
   8.81000
     10.4310     7.11960    -99999.0    -99999.0    -99999.0
    -99999.0     829.185     30.8720
   8.82000
     10.4310     7.11960    -99999.0    -99999.0    -99999.0
    -99999.0     829.186     30.8720
   8.83000
     10.4310     7.11960    -99999.0    -99999.0    -99999.0
    -99999.0     829.183     30.8800
   8.84000
     10.4310     7.11960    -99999.0    -99999.0    -99999.0
    -99999.0     827.253     30.8880
   8.85000
     10.4310     7.11960    -99999.0    -99999.0    -99999.0
    -99999.0     827.252     30.8880
   8.86000
     10.4310     7.11960    -99999.0    -99999.0    -99999.0
    -99999.0     825.441     30.8920
   8.87000
     10.4320     7.11960    -99999.0    -99999.0    -99999.0
    -99999.0     827.251     30.8920
   8.88000
     10.4320     7.11960    -99999.0    -99999.0    -99999.0
    -99999.0     827.252     30.8940
   8.89000
     10.4320     7.13023    -99999.0    -99999.0    -99999.0
    -99999.0     829.183     30.8910
   8.90000
     10.4320     14.0956    -99999.0    -99999.0    -99999.0
    -99999.0     829.186     30.8910
   8.91000
     10.4320     14.0996    -99999.0    -99999.0    -99999.0
    -99999.0     825.378     30.8900
