#------------------------------------------------------------
~VERSION INFORMATION
VERS.               2.0  :CWLS LOG ASCII STANDARD - VERSION 2.0
WRAP.               YES  :MULTIPLE LINES PER DEPTH STEP
#------------------------------------------------------------
~WELL INFORMATION
STRT.M        -0.700000  :FIRST INDEX VALUE
STOP.M          390.050  :LAST INDEX VALUE
STEP.M        0.0100000  :STEP
NULL.            -99999  :NULL VALUE
COMP.                    :COMPANY
WELL.                    :WELL
FLD.                     :FIELD
LOC.                     :LOCATION
SRVC.                    :
CTRY.                    :COUNTRY
STAT.                    :STATE
CNTY.                    :
DATE.                    :DATE
API.                     :
#------------------------------------------------------------
~CURVE INFORMATION
DEPT.M                   :DEPTH
BOREHOLE_DIAMETER.INCH   :Borehole Diameter
NATURAL_GAMMA_RAY.API    :Natural Gamma Ray
LONG_NORMAL_RESISTIVITY_64".OHMM   :Long Normal Resistivity 64"
SHORT_NORMAL_RESISTIVITY_16".OHMM   :Short Normal Resistivity 16"
SPR.OHM                  :SPR
SP.MV                    :SP
CONDUCTIVITY.USIE        :Conductivity
TEMPERATURE.°C           :Temperature
#------------------------------------------------------------
~PARAMETER INFORMATION
Abbreviations_. _m.b.g.l. - meters below ground level_m.a.s.l. - meters above sea level_API - American Petroleum Institute Counts_In / " - Inches_DEGC - Degree Celsius_ppm - parts per million (total dissolved solids)_g/cc - grams per cubic centimeter_% - percent porosity_Date Format_ DD/MM/YYYY  :Abbreviations:
CLIENT_.  Suhab Alsahel  :CLIENT:
DateTime#1.  30/03/2024  :DateTime#1
DEPTH_LOGGER_. 390 m.b.g.l.  :DEPTH LOGGER:
DEPTH-TO-WATER_.  filled  :DEPTH-TO-WATER:
DRILLING_DEPTH_. 390 m.b.g.l  :DRILLING DEPTH:
ELEVATION_.    m.a.s.l.  :ELEVATION:
FLUID_IN_HOLE_.     Mud  :FLUID IN HOLE:
Geophysical_Well_Logging_of. K-GEP-1  :Geophysical Well Logging of
LATITUDE_.  N 22.300800  :LATITUDE:
LOGGING_ENGINEERS_.  Eng. Qais  :LOGGING ENGINEERS:
LONGITUDE_. E 39.114322  :LONGITUDE:
TYPE_OF_LOG_. Composite  :TYPE OF LOG:
WITNESSED_BY_.           :WITNESSED BY:
#------------------------------------------------------------
~OTHER
#------------------------------------------------------------
~A
# ...
   234.620
     10.1940    0.139600     20.5550     6.78700    0.621000
    -237.831     61277.4     38.8090
   234.630
     10.1930    0.139600     20.5550     6.78700    0.621000
    -237.831     61277.4     38.8040
   234.640
     10.1930     7.10894     20.5550     6.78700    0.621000
    -237.831     61277.4     38.8040
   234.650
     10.1930     7.11960     20.5550     6.78700    0.658000
    -237.831     61277.4     38.8110
   234.660
     10.1930    0.150240     20.7470     6.78700    0.658000
    -237.907     61277.4     38.8110
   234.670
     10.1930    0.139600     20.7470     6.78700    0.658000
    -237.907     61277.4     38.8110
   234.680
     10.1930    0.139600     20.7470     6.44600    0.658000
    -237.907     61277.4     38.8060
   234.690
     10.1930     7.10896     20.7470     6.44600    0.658000
    -237.907     61277.4     38.8060
   234.700
     10.1940     7.11960     20.7470     6.44600    0.658000
    -237.907     61277.4     38.8070
   234.710
     10.1940    0.150240     20.7470     6.44600    0.658000
    -237.907     61277.4     38.8070
   234.720
     10.2050    0.139600     20.7470     6.44600    0.482000
    -237.907     61277.4     38.8070
   234.730
     10.2050    0.139600     20.6700     6.44600    0.482000
    -237.702     61277.4     38.8060
   234.740
     10.2060    0.139600     20.6700     6.44600    0.482000
    -237.702     61277.4     38.8060
   234.750
     10.2060    0.139600     20.6700     6.51400    0.482000
    -237.702     61277.4     38.8100
   234.760
     10.2060    0.139600     20.6700     6.51400    0.482000
    -237.702     61277.4     38.8100
   234.770
     10.2100    0.139600     20.6700     6.51400    0.482000
    -237.702     61277.4     38.8100
   234.780
     10.2100     14.0996     20.6700     6.51400    0.482000
    -237.702     61277.4     38.8100
   234.790
     10.1900     14.0996     20.6700     6.51400    0.519000
    -237.702     61277.4     38.8100
   234.800
     10.1900     14.0996     20.9580     6.51400    0.519000
    -237.848     61277.4     38.8070
   234.810
     10.1910     14.0996     20.9580     6.45800    0.519000
    -237.848     61277.4     38.8070
   234.820
     10.1910     21.0690     20.9580     6.45800    0.519000
    -237.848     61277.4     38.8070
   234.830
     10.1910     21.0796     20.9580     6.45800    0.519000
    -237.848     61277.4     38.8090
   234.840
     10.1910     6.78735     20.9580     6.45800    0.519000
    -237.848     61277.4     38.8090
   234.850
     10.1910     6.78735     20.9580     6.45800    0.519000
    -237.848     61277.4     38.8080
   234.860
     10.1910     6.78735     20.9580     6.45800    0.528000
    -237.848     61277.4     38.8080
   234.870
     10.1910     14.0996     21.3620     6.45800    0.528000
    -237.693     61277.4     38.8080
   234.880
     10.1920     14.0996     21.3620     6.42400    0.528000
    -237.693     61277.4     38.8090
   234.890
     10.1920    0.160913     21.3620     6.42400    0.528000
    -237.693     61277.4     38.8090
   234.900
     10.1910    0.139600     21.3620     6.42400    0.528000
    -237.693     61277.4     38.8040
   234.910
     10.1910     7.10896     21.3620     6.42400    0.528000
    -237.693     61277.4     38.8040
   234.920
     10.1920     7.11960     21.3620     6.33300    0.528000
    -237.693     61277.4     38.8040
   234.930
     10.1920     7.11960     21.3620     6.33300    0.612000
    -237.693     61277.4     38.8100
   234.940
     10.1810    0.150240     20.8520     6.33300    0.612000
    -237.906     61277.4     38.8100
   234.950
     10.1810    0.139600     20.8520     6.33300    0.612000
    -237.906     61277.4     38.8080
   234.960
     10.1810     7.10896     20.8520     6.33300    0.612000
    -237.906     61277.4     38.8080
   234.970
     10.1810     7.11960     20.8520     6.33300    0.612000
    -237.906     61277.4     38.8080
   234.980
     10.1810     7.11960     20.8520     6.33300    0.612000
    -237.906     61277.4     38.8100
   234.990
     10.1800     7.11960     20.8520     6.27600    0.612000
    -237.906     61277.4     38.8100
   235.000
     10.1800    0.150257     20.8520     6.27600    0.556000
    -237.906     61277.4     38.8100
   235.010
     10.1810    0.139600     21.1790     6.27600    0.556000
    -237.803     61277.4     38.8110
   235.020
     10.1810     7.10896     21.1790     6.27600    0.556000
    -237.803     61277.4     38.8110
   235.030
     10.1810     7.11960     21.1790     6.27600    0.556000
    -237.803     61277.4     38.8080
   235.040
     10.1810     7.11960     21.1790     6.27600    0.556000
    -237.803     61277.4     38.8080
   235.050
     10.1810    0.150240     21.1790     6.27600    0.556000
    -237.803     61277.4     38.8100
   235.060
     10.1810    0.139600     21.1790     6.28700    0.538000
    -237.803     61277.4     38.8100
   235.070
     10.1810     7.10896     21.1790     6.28700    0.538000
    -237.803     61277.4     38.8100
   235.080
     10.1820     7.11960     20.7180     6.28700    0.538000
    -238.052     61277.4     38.8070
   235.090
     10.1820    0.139600     20.7180     6.28700    0.538000
    -238.052     61277.4     38.8070
   235.100
     10.1830    0.139600     20.7180     6.28700    0.538000
    -238.052     61277.4     38.8070
   235.110
     10.1830    0.139600     20.7180     6.28700    0.538000
    -238.052     61277.4     38.8080
   235.120
     10.1850    0.139600     20.7180     6.28700    0.538000
    -238.052     61277.4     38.8080
   235.130
     10.1850    0.139600     20.7180     6.18500    0.538000
    -238.052     61277.4     38.8090
   235.140
     10.1850    0.139600     20.7180     6.18500    0.538000
    -238.052     61277.4     38.8090
   235.150
     10.1940    0.139600     21.0730     6.18500    0.538000
    -237.964     61277.4     38.8090
   235.160
     10.1940    0.139600     21.0730     6.18500    0.538000
    -237.964     61277.4     38.8110
   235.170
     10.1950    0.139600     21.0730     6.18500    0.538000
    -237.964     61277.4     38.8110
   235.180
     10.1950     14.0996     21.0730     6.18500    0.538000
    -237.964     61277.4     38.8110
   235.190
     10.1950     14.0996     21.0730     6.18500    0.538000
    -237.964     61277.4     38.8110
   235.200
     10.1950    0.139600     21.0730     6.18500    0.538000
    -237.964     61277.4     38.8110
   235.210
     10.1950    0.139600     21.0730     6.18500    0.538000
    -237.964     61277.4     38.8080
   235.220
     10.1950    0.139600     21.4670     6.18500    0.538000
    -238.160     61277.4     38.8080
   235.230
     10.1950    0.139600     21.4670     6.18500    0.538000
    -238.160     61277.4     38.8110
   235.240
     10.1950    0.139600     21.4670     6.18500    0.538000
    -238.160     61277.4     38.8110
   235.250
     10.1950    0.139600     21.4670     6.18500    0.538000
    -238.160     61277.4     38.8110
   235.260
     10.1950    0.139600     21.4670     6.25300    0.538000
    -238.160     61277.4     38.8060
   235.270
     10.1950    0.139600     21.4670     6.25300    0.491000
    -238.160     61277.4     38.8060
   235.280
     10.1970    0.139600     21.4670     6.25300    0.491000
    -238.160     61277.4     38.8100
   235.290
     10.1970    0.139600     21.2270     6.25300    0.491000
    -238.229     61277.4     38.8100
   235.300
     10.1970    0.139600     21.2270     6.25300    0.491000
    -238.229     61277.4     38.8100
   235.310
     10.2040    0.139600     21.2270     6.25300    0.491000
    -238.229     61277.4     38.8080
   235.320
     10.2040    0.139600     21.2270     6.25300    0.491000
    -238.229     61277.4     38.8080
   235.330
     10.2060    0.139600     21.2270     6.17400    0.491000
    -238.229     61277.4     38.8100
   235.340
     10.2060    0.139600     21.2270     6.17400    0.491000
    -238.229     61277.4     38.8100
   235.350
     10.2050    0.139600     21.2270     6.17400    0.491000
    -238.229     61277.4     38.8100
