#------------------------------------------------------------
~VERSION INFORMATION
VERS.               2.0  :CWLS LOG ASCII STANDARD - VERSION 2.0
WRAP.               YES  :MULTIPLE LINES PER DEPTH STEP
#------------------------------------------------------------
~WELL INFORMATION
STRT.M        -0.700000  :FIRST INDEX VALUE
STOP.M          390.050  :LAST INDEX VALUE
STEP.M        0.0100000  :STEP
NULL.            -99999  :NULL VALUE
COMP.                    :COMPANY
WELL.                    :WELL
FLD.                     :FIELD
LOC.                     :LOCATION
SRVC.                    :
CTRY.                    :COUNTRY
STAT.                    :STATE
CNTY.                    :
DATE.                    :DATE
API.                     :
#------------------------------------------------------------
~CURVE INFORMATION
DEPT.M                   :DEPTH
BOREHOLE_DIAMETER.INCH   :Borehole Diameter
NATURAL_GAMMA_RAY.API    :Natural Gamma Ray
LONG_NORMAL_RESISTIVITY_64".OHMM   :Long Normal Resistivity 64"
SHORT_NORMAL_RESISTIVITY_16".OHMM   :Short Normal Resistivity 16"
SPR.OHM                  :SPR
SP.MV                    :SP
CONDUCTIVITY.USIE        :Conductivity
TEMPERATURE.°C           :Temperature
#------------------------------------------------------------
~PARAMETER INFORMATION
Abbreviations_. _m.b.g.l. - meters below ground level_m.a.s.l. - meters above sea level_API - American Petroleum Institute Counts_In / " - Inches_DEGC - Degree Celsius_ppm - parts per million (total dissolved solids)_g/cc - grams per cubic centimeter_% - percent porosity_Date Format_ DD/MM/YYYY  :Abbreviations:
CLIENT_.  Suhab Alsahel  :CLIENT:
DateTime#1.  30/03/2024  :DateTime#1
DEPTH_LOGGER_. 390 m.b.g.l.  :DEPTH LOGGER:
DEPTH-TO-WATER_.  filled  :DEPTH-TO-WATER:
DRILLING_DEPTH_. 390 m.b.g.l  :DRILLING DEPTH:
ELEVATION_.    m.a.s.l.  :ELEVATION:
FLUID_IN_HOLE_.     Mud  :FLUID IN HOLE:
Geophysical_Well_Logging_of. K-GEP-1  :Geophysical Well Logging of
LATITUDE_.  N 22.300800  :LATITUDE:
LOGGING_ENGINEERS_.  Eng. Qais  :LOGGING ENGINEERS:
LONGITUDE_. E 39.114322  :LONGITUDE:
TYPE_OF_LOG_. Composite  :TYPE OF LOG:
WITNESSED_BY_.           :WITNESSED BY:
#------------------------------------------------------------
~OTHER
#------------------------------------------------------------
~A
# ...
   83.6600
     10.4400     7.11960    -99999.0    -99999.0    -99999.0
    -99999.0     61277.4     36.1170
   83.6700
     10.4400     7.11960    -99999.0    -99999.0    -99999.0
    -99999.0     61277.4     36.1170
   83.6800
     10.4400     7.11960    -99999.0    -99999.0    -99999.0
    -99999.0     61277.4     36.1170
   83.6900
     10.4400     7.11960    -99999.0    -99999.0    -99999.0
    -99999.0     61277.4     36.1180
   83.7000
     10.4400    0.150257    -99999.0    -99999.0    -99999.0
    -99999.0     61277.4     36.1180
   83.7100
     10.4400    0.139600    -99999.0    -99999.0    -99999.0
    -99999.0     61277.4     36.1180
   83.7200
     10.4400    0.139600    -99999.0    -99999.0    -99999.0
    -99999.0     61277.4     36.1180
   83.7300
     10.4400     7.10363    -99999.0    -99999.0    -99999.0
    -99999.0     61277.4     36.1230
   83.7400
     10.4400     7.11960    -99999.0    -99999.0    -99999.0
    -99999.0     61277.4     36.1230
   83.7500
     10.4400     7.11960    -99999.0    -99999.0    -99999.0
    -99999.0     61277.4     36.1230
   83.7600
     10.4400     7.11960    -99999.0    -99999.0    -99999.0
    -99999.0     61277.4     36.1230
   83.7700
     10.4400    0.144928    -99999.0    -99999.0    -99999.0
    -99999.0     61277.4     36.1230
   83.7800
     10.4400    0.139600    -99999.0    -99999.0    -99999.0
    -99999.0     61277.4     36.1230
   83.7900
     10.4400    0.139600    -99999.0    -99999.0    -99999.0
    -99999.0     61277.4     36.1230
   83.8000
     10.4400     7.10895    -99999.0    -99999.0    -99999.0
    -99999.0     61277.4     36.1230
   83.8100
     10.4400     7.11960    -99999.0    -99999.0    -99999.0
    -99999.0     61277.4     36.1230
   83.8200
     10.4400     7.11960    -99999.0    -99999.0    -99999.0
    -99999.0     61277.4     36.1240
   83.8300
     10.4400     7.11960    -99999.0    -99999.0    -99999.0
    -99999.0     61277.4     36.1240
   83.8400
     10.4400    0.139600    -99999.0    -99999.0    -99999.0
    -99999.0     61277.4     36.1240
   83.8500
     10.4400    0.139600    -99999.0    -99999.0    -99999.0
    -99999.0     61277.4     36.1280
   83.8600
     10.4400    0.139600    -99999.0    -99999.0    -99999.0
    -99999.0     61277.4     36.1280
   83.8700
     10.4400    0.139600    -99999.0    -99999.0    -99999.0
    -99999.0     61277.4     36.1280
   83.8800
     10.4400    0.139600    -99999.0    -99999.0    -99999.0
    -99999.0     61277.4     36.1310
   83.8900
     10.4400    0.139600    -99999.0    -99999.0    -99999.0
    -99999.0     61277.4     36.1310
   83.9000
     10.4400     7.11428    -99999.0    -99999.0    -99999.0
    -99999.0     61277.4     36.1310
   83.9100
     10.4400     7.11960    -99999.0    -99999.0    -99999.0
    -99999.0     61277.4     36.1320
   83.9200
     10.4400     7.11960    -99999.0    -99999.0    -99999.0
    -99999.0     61277.4     36.1320
   83.9300
     10.4400     7.11960    -99999.0    -99999.0    -99999.0
    -99999.0     61277.4     36.1320
   83.9400
     10.4400    0.139600    -99999.0    -99999.0    -99999.0
    -99999.0     61277.4     36.1310
   83.9500
     10.4400    0.139600    -99999.0    -99999.0    -99999.0
    -99999.0     61277.4     36.1310
   83.9600
     10.4400    0.139600    -99999.0    -99999.0    -99999.0
    -99999.0     61277.4     36.1310
   83.9700
     10.4400    0.139600    -99999.0    -99999.0    -99999.0
    -99999.0     61277.4     36.1360
   83.9800
     10.4400    0.139600    -99999.0    -99999.0    -99999.0
    -99999.0     61277.4     36.1360
   83.9900
     10.4400    0.139600    -99999.0    -99999.0    -99999.0
    -99999.0     61277.4     36.1360
   84.0000
     10.4400    0.139600    -99999.0    -99999.0    -99999.0
    -99999.0     61277.4     36.1340
   84.0100
     10.4400    0.139600    -99999.0    -99999.0    -99999.0
    -99999.0     61277.4     36.1340
   84.0200
     10.4400    0.139600    -99999.0    -99999.0    -99999.0
    -99999.0     61277.4     36.1340
   84.0300
     10.4400    0.139600    -99999.0    -99999.0    -99999.0
    -99999.0     61277.4     36.1390
   84.0400
     10.4400     7.11960    -99999.0    -99999.0    -99999.0
    -99999.0     61277.4     36.1390
   84.0500
     10.4400     7.11960    -99999.0    -99999.0    -99999.0
    -99999.0     61277.4     36.1390
   84.0600
     10.4400     7.11960    -99999.0    -99999.0    -99999.0
    -99999.0     61277.4     36.1420
   84.0700
     10.4400    0.139600    -99999.0    -99999.0    -99999.0
    -99999.0     61277.4     36.1420
   84.0800
     10.4400    0.139600    -99999.0    -99999.0    -99999.0
    -99999.0     61277.4     36.1420
   84.0900
     10.4400    0.139600    -99999.0    -99999.0    -99999.0
    -99999.0     61277.4     36.1450
   84.1000
     10.4400    0.139600    -99999.0    -99999.0    -99999.0
    -99999.0     61277.4     36.1450
   84.1100
     10.4400    0.139600    -99999.0    -99999.0    -99999.0
    -99999.0     61277.4     36.1450
   84.1200
     10.4400    0.139600    -99999.0    -99999.0    -99999.0
    -99999.0     61277.4     36.1450
   84.1300
     10.4400    0.139600    -99999.0    -99999.0    -99999.0
    -99999.0     61277.4     36.1430
   84.1400
     10.4400     7.10895    -99999.0    -99999.0    -99999.0
    -99999.0     61277.4     36.1430
   84.1500
     10.4400     7.11960    -99999.0    -99999.0    -99999.0
    -99999.0     61277.4     36.1430
   84.1600
     10.4400     7.11960    -99999.0    -99999.0    -99999.0
    -99999.0     61277.4     36.1460
   84.1700
     10.4400     7.11960    -99999.0    -99999.0    -99999.0
    -99999.0     61277.4     36.1460
   84.1800
     10.4400    0.144924    -99999.0    -99999.0    -99999.0
    -99999.0     61277.4     36.1460
   84.1900
     10.4400    0.139600    -99999.0    -99999.0    -99999.0
    -99999.0     61277.4     36.1500
   84.2000
     10.4400    0.139600    -99999.0    -99999.0    -99999.0
    -99999.0     61277.4     36.1500
   84.2100
     10.4400    0.139600    -99999.0    -99999.0    -99999.0
    -99999.0     61277.4     36.1500
   84.2200
     10.4400    0.139600    -99999.0    -99999.0    -99999.0
    -99999.0     61277.4     36.1510
   84.2300
     10.4400    0.139600    -99999.0    -99999.0    -99999.0
    -99999.0     61277.4     36.1510
   84.2400
     10.4400    0.139600    -99999.0    -99999.0    -99999.0
    -99999.0     61277.4     36.1510
   84.2500
     10.4400    0.139600    -99999.0    -99999.0    -99999.0
    -99999.0     61277.4     36.1570
   84.2600
     10.4400    0.139600    -99999.0    -99999.0    -99999.0
    -99999.0     61277.4     36.1570
   84.2700
     10.4400    0.139600    -99999.0    -99999.0    -99999.0
    -99999.0     61277.4     36.1570
   84.2800
     10.4400    0.139600    -99999.0    -99999.0    -99999.0
    -99999.0     61277.4     36.1560
   84.2900
     10.4400    0.139600    -99999.0    -99999.0    -99999.0
    -99999.0     61277.4     36.1560
   84.3000
     10.4400    0.139600    -99999.0    -99999.0    -99999.0
    -99999.0     61277.4     36.1560
   84.3100
     10.4400    0.139600    -99999.0    -99999.0    -99999.0
    -99999.0     61277.4     36.1570
   84.3200
     10.4400    0.139600    -99999.0    -99999.0    -99999.0
    -99999.0     61277.4     36.1570
   84.3300
     10.4400    0.139600    -99999.0    -99999.0    -99999.0
    -99999.0     61277.4     36.1570
   84.3400
     10.4400    0.139600    -99999.0    -99999.0    -99999.0
    -99999.0     61277.4     36.1640
   84.3500
     10.4400    0.139600    -99999.0    -99999.0    -99999.0
    -99999.0     61277.4     36.1640
   84.3600
     10.4400    0.139600    -99999.0    -99999.0    -99999.0
    -99999.0     61277.4     36.1640
   84.3700
     10.4400    0.139600    -99999.0    -99999.0    -99999.0
    -99999.0     61277.4     36.1650
   84.3800
     10.4400    0.139600    -99999.0    -99999.0    -99999.0
    -99999.0     61277.4     36.1650
   84.3900
     10.4400    0.139600    -99999.0    -99999.0    -99999.0
    -99999.0     61277.4     36.1650
