#------------------------------------------------------------
~VERSION INFORMATION
VERS.               2.0  :CWLS LOG ASCII STANDARD - VERSION 2.0
WRAP.               YES  :MULTIPLE LINES PER DEPTH STEP
#------------------------------------------------------------
~WELL INFORMATION
STRT.M        -0.700000  :FIRST INDEX VALUE
STOP.M          390.050  :LAST INDEX VALUE
STEP.M        0.0100000  :STEP
NULL.            -99999  :NULL VALUE
COMP.                    :COMPANY
WELL.                    :WELL
FLD.                     :FIELD
LOC.                     :LOCATION
SRVC.                    :
CTRY.                    :COUNTRY
STAT.                    :STATE
CNTY.                    :
DATE.                    :DATE
API.                     :
#------------------------------------------------------------
~CURVE INFORMATION
DEPT.M                   :DEPTH
BOREHOLE_DIAMETER.INCH   :Borehole Diameter
NATURAL_GAMMA_RAY.API    :Natural Gamma Ray
LONG_NORMAL_RESISTIVITY_64".OHMM   :Long Normal Resistivity 64"
SHORT_NORMAL_RESISTIVITY_16".OHMM   :Short Normal Resistivity 16"
SPR.OHM                  :SPR
SP.MV                    :SP
CONDUCTIVITY.USIE        :Conductivity
TEMPERATURE.°C           :Temperature
#------------------------------------------------------------
~PARAMETER INFORMATION
Abbreviations_. _m.b.g.l. - meters below ground level_m.a.s.l. - meters above sea level_API - American Petroleum Institute Counts_In / " - Inches_DEGC - Degree Celsius_ppm - parts per million (total dissolved solids)_g/cc - grams per cubic centimeter_% - percent porosity_Date Format_ DD/MM/YYYY  :Abbreviations:
CLIENT_.  Suhab Alsahel  :CLIENT:
DateTime#1.  30/03/2024  :DateTime#1
DEPTH_LOGGER_. 390 m.b.g.l.  :DEPTH LOGGER:
DEPTH-TO-WATER_.  filled  :DEPTH-TO-WATER:
DRILLING_DEPTH_. 390 m.b.g.l  :DRILLING DEPTH:
ELEVATION_.    m.a.s.l.  :ELEVATION:
FLUID_IN_HOLE_.     Mud  :FLUID IN HOLE:
Geophysical_Well_Logging_of. K-GEP-1  :Geophysical Well Logging of
LATITUDE_.  N 22.300800  :LATITUDE:
LOGGING_ENGINEERS_.  Eng. Qais  :LOGGING ENGINEERS:
LONGITUDE_. E 39.114322  :LONGITUDE:
TYPE_OF_LOG_. Composite  :TYPE OF LOG:
WITNESSED_BY_.           :WITNESSED BY:
#------------------------------------------------------------
~OTHER
#------------------------------------------------------------
~A
# ...
   259.780
     10.4800    0.139600     6.97300     2.39200    0.110000
    -248.894     61277.4     38.9900
   259.790
     10.4621     7.09832     6.97300     2.60800    0.110000
    -248.894     61277.4     38.9900
   259.800
     10.4620     7.11960     6.68500     2.60800  -0.0490000
    -248.894     61277.4     38.9910
   259.810
     10.4620     7.11960     6.68500     2.60800  -0.0490000
    -248.902     61277.4     38.9910
   259.820
     10.4620     7.11960     6.68500     2.60800  -0.0490000
    -248.902     61277.4     38.9910
   259.830
     10.4630     14.0996     6.68500     2.60800  -0.0490000
    -248.902     61277.4     38.9880
   259.840
     10.4630     14.0996     6.68500     2.60800  -0.0490000
    -248.902     61277.4     38.9880
   259.850
     10.4630    0.182161     6.68500     2.60800  -0.0490000
    -248.902     61277.4     38.9900
   259.860
     10.4640    0.139600     6.68500     2.75600  -0.0490000
    -248.902     61277.4     38.9900
   259.870
     10.4640    0.139600     6.68500     2.75600   -0.179000
    -248.902     61277.4     38.9880
   259.880
     10.4650    0.139600     6.68500     2.75600   -0.179000
    -248.916     61277.4     38.9880
   259.890
     10.4650    0.139600     6.68500     2.75600   -0.179000
    -248.916     61277.4     38.9880
   259.900
     10.4650     7.11960     6.68500     2.75600   -0.179000
    -248.916     61277.4     38.9910
   259.910
     10.4650     7.11960     6.68500     2.75600   -0.179000
    -248.916     61277.4     38.9910
   259.920
     10.4660    0.160881     6.68500     2.75600   -0.179000
    -248.916     61277.4     38.9910
   259.930
     10.4660    0.139600     6.75200     2.44900   -0.179000
    -248.916     61277.4     38.9880
   259.940
     10.4740    0.139600     6.75200     2.44900  -0.0860000
    -248.916     61277.4     38.9880
   259.950
     10.4740    0.139600     6.75200     2.44900  -0.0860000
    -248.950     61277.4     38.9890
   259.960
     10.5250     7.11960     6.75200     2.44900  -0.0860000
    -248.950     61277.4     38.9890
   259.970
     10.5250     7.11960     6.75200     2.44900  -0.0860000
    -248.950     61277.4     38.9890
   259.980
     10.5250     27.9958     6.75200     2.44900  -0.0860000
    -248.950     61277.4     38.9910
   259.990
     10.5810     28.0596     6.75200     2.44900  -0.0860000
    -248.950     61277.4     38.9910
   260.000
     10.5810     7.11960     6.65600     2.59700  -0.0860000
    -248.950     61277.4     38.9880
   260.010
     10.6380     7.11960     6.65600     2.59700  -0.0670000
    -248.950     61277.4     38.9880
   260.020
     10.6380     7.11960     6.65600     2.59700  -0.0670000
    -249.022     61277.4     38.9880
   260.030
     10.6380     7.11960     6.65600     2.59700  -0.0670000
    -249.022     61277.4     38.9880
   260.040
     10.6380     7.11960     6.65600     2.59700  -0.0670000
    -249.022     61277.4     38.9880
   260.050
     10.6380     35.0396     6.65600     2.59700  -0.0670000
    -249.022     61277.4     38.9900
   260.060
     10.6380     35.0396     6.65600     2.59700  -0.0670000
    -249.022     61277.4     38.9900
   260.070
     10.5740     14.0996     6.60800     2.58500  -0.0670000
    -249.022     61277.4     38.9900
   260.080
     10.5740     14.0996     6.60800     2.58500   -0.104000
    -249.106     61277.4     38.9880
   260.090
     10.5850     7.11960     6.60800     2.58500   -0.104000
    -249.106     61277.4     38.9880
   260.100
     10.5850     7.11960     6.60800     2.58500   -0.104000
    -249.106     61277.4     38.9890
   260.110
     10.5810     28.0596     6.60800     2.58500   -0.104000
    -249.106     61277.4     38.9890
   260.120
     10.5810     28.0596     6.60800     2.58500   -0.104000
    -249.106     61277.4     38.9890
   260.130
     10.5810     7.11960     6.60800     2.66500   -0.104000
    -249.106     61277.4     38.9910
   260.140
     10.5840     7.11960     6.63700     2.66500   -0.104000
    -249.106     61277.4     38.9910
   260.150
     10.5840     7.11960     6.63700     2.66500   0.0630000
    -249.097     61277.4     38.9900
   260.160
     10.6358     14.0783     6.63700     2.66500   0.0630000
    -249.097     61277.4     38.9900
   260.170
     10.6360     14.0996     6.63700     2.66500   0.0630000
    -249.097     61277.4     38.9910
   260.180
     10.5810    0.139600     6.63700     2.66500   0.0630000
    -249.097     61277.4     38.9910
   260.190
     10.5810    0.139600     6.63700     2.66500   0.0630000
    -249.097     61277.4     38.9910
   260.200
     10.6820     7.11960     6.63700     2.56300   0.0630000
    -249.097     61277.4     38.9910
   260.210
     10.6820     7.11960     6.60800     2.56300  -0.0390000
    -249.087     61277.4     38.9910
   260.220
     10.6760     21.0370     6.60800     2.56300  -0.0390000
    -249.087     61277.4     38.9910
   260.230
     10.6760     21.0796     6.60800     2.56300  -0.0390000
    -249.087     61277.4     38.9900
   260.240
     10.6760     7.11960     6.60800     2.56300  -0.0390000
    -249.087     61277.4     38.9900
   260.250
     10.7640     7.11960     6.60800     2.56300  -0.0390000
    -249.087     61277.4     38.9910
   260.260
     10.7640     7.11960     6.60800     2.43800  -0.0390000
    -249.087     61277.4     38.9910
   260.270
     10.7400     7.11960     6.60800     2.43800  -0.0390000
    -249.087     61277.4     38.9910
   260.280
     10.7400     7.11960     6.80000     2.43800  -0.0860000
    -249.248     61277.4     38.9910
   260.290
     10.7310     7.11960     6.80000     2.43800  -0.0860000
    -249.248     61277.4     38.9910
   260.300
     10.7310     7.11960     6.80000     2.43800  -0.0860000
    -249.248     61277.4     38.9940
   260.310
     10.7520     7.11960     7.34700     2.43800  -0.0860000
    -249.248     61277.4     38.9940
   260.320
     10.7520     7.11960     7.34700     2.43800  -0.0860000
    -249.248     61277.4     38.9940
   260.330
     10.8530     21.0796     7.34700     2.39200  -0.0860000
    -249.248     61277.4     38.9930
   260.340
     10.8530     21.0796     7.34700     2.39200  -0.0860000
    -249.248     61277.4     38.9930
   260.350
     10.7732     7.16216     7.34700     2.39200  -0.00200000
    -249.273     61277.4     38.9950
   260.360
     10.7730     7.11960     7.34700     2.39200  -0.00200000
    -249.273     61277.4     38.9950
   260.370
     10.7730     21.0796     7.34700     2.39200  -0.00200000
    -249.273     61277.4     38.9950
   260.380
     10.7470     21.0796     7.14600     2.39200  -0.00200000
    -249.273     61277.4     38.9890
   260.390
     10.7470     21.0796     7.14600     2.39200  -0.00200000
    -249.273     61277.4     38.9890
   260.400
     10.7040     14.0996     7.14600     2.41500  -0.00200000
    -249.273     61277.4     38.9930
   260.410
     10.7040     14.0996     7.14600     2.41500  -0.00200000
    -249.273     61277.4     38.9930
   260.420
     10.7060     7.14088     7.14600     2.41500  -0.0950000
    -249.367     61277.4     38.9930
   260.430
     10.7060     7.11960     7.14600     2.41500  -0.0950000
    -249.367     61277.4     38.9920
   260.440
     10.7060     21.0796     7.14600     2.41500  -0.0950000
    -249.367     61277.4     38.9920
   260.450
     10.5860     21.0796     7.48200     2.41500  -0.0860000
    -249.367     61277.4     38.9910
   260.460
     10.5860     14.0996     7.48200     2.41500  -0.0860000
    -249.367     61277.4     38.9910
   260.470
     10.6727     14.0996     7.48200     2.25600  -0.0860000
    -249.367     61277.4     38.9910
   260.480
     10.6730     14.0996     7.48200     2.25600  -0.0860000
    -249.367     61277.4     38.9920
   260.490
     10.5910     14.0996     7.48200     2.25600  -0.0860000
    -249.286     61277.4     38.9920
   260.500
     10.5910     14.0996     7.48200     2.25600  -0.0860000
    -249.286     61277.4     38.9920
   260.510
     10.6090     7.11960     7.43400     2.25600   -0.114000
    -249.286     61277.4     38.9930
